     3.00           OBSERVATION DATA    M: Mixed            RINEX VERSION / TYPE
sbp2rinex 1.1                           20200916 122355 UTC PGM / RUN BY / DATE 
log: piksi/base_station_receiver_0_2020_16_09_11_52_33.sbp  COMMENT             
format: Swift Navigation SBP                                COMMENT             
                                                            MARKER NAME         
                                                            MARKER NUMBER       
                                                            MARKER TYPE         
                                                            OBSERVER / AGENCY   
                                                            REC # / TYPE / VERS 
                                                            ANT # / TYPE        
        0.0000        0.0000        0.0000                  APPROX POSITION XYZ 
        0.0000        0.0000        0.0000                  ANTENNA: DELTA H/E/N
G    8 C1C L1C D1C S1C C2S L2S D2S S2S                      SYS / # / OBS TYPES 
R    8 C1C L1C D1C S1C C2C L2C D2C S2C                      SYS / # / OBS TYPES 
  2020     9    16    11    52   51.0000000     GPS         TIME OF FIRST OBS   
  2020     9    16    11    59   50.0000000     GPS         TIME OF LAST OBS    
                                                            END OF HEADER       
> 2020  9 16 11 52 51.0000000  0 20       0.000000000000
G19                                                                                                                                
G 3  20419324.760   107304278.961         785.875          53.500    20419326.820    83613736.129         611.770          51.750  
G 4  22794169.020   119784167.184        3436.027          48.750    22794169.300    93338316.168        2677.547          47.250  
G11  21914827.480   115163192.016       -3339.426          51.250                                                                  
G22  20669217.700   108617473.535        -630.293          53.750                                                                  
G 1  20387276.460   107135858.625       -1253.645          53.750    20387277.680    83482513.840        -977.348          51.250  
G17  22629738.800   118920077.590        1863.871          49.000    22629739.140    92665005.621        1452.180          47.750  
R 1  20646765.560   110368825.367       -2993.137          49.250    20646771.820    85842422.137       -2327.684          45.000  
R18  22474994.700   119973082.918        3968.531          50.750    22475001.140    93312400.906        3086.473          50.250  
R24  20380260.380   108982457.316       -2959.285          53.750    20380265.140    84764128.922       -2301.582          52.250  
R23  23466493.820   125529950.609       -4349.594          44.750    23466502.080    97634409.109       -3381.543          44.000  
R17  19247539.340   102997502.004        1122.320          53.500    19247545.020    80109167.000         874.219          52.250  
R 3  23374932.800   125127893.227        3899.793          46.250    23374939.780    97321703.738        3033.090          46.000  
G 9                                                                                                                                
G27                                                                                                                                
G28                                                                                                                                
G14                                                                                                                                
G12                                                                                                                                
G 7                                                                                                                                
G26                                                                                                                                
> 2020  9 16 11 52 52.0000000  0 20       0.000000000000
G19                                                                                                                                
G 3  20419174.720   107303490.523         785.367          53.500    20419176.660    83613121.758         612.129          51.500  
G 4  22793514.780   119780728.387        3434.965          48.750    22793514.680    93335636.586        2674.953          47.000  
G11  21915462.400   115166528.684       -3340.383          51.500                                                                  
G22  20669337.160   108618101.445        -630.875          53.750                                                                  
G 1  20387514.420   107137109.684       -1254.508          54.000    20387515.780    83483488.688        -977.281          51.250  
G17  22629383.660   118918211.508        1862.828          49.000    22629384.020    92663551.539        1451.641          47.750  
R 1  20647324.260   110371815.121       -2992.477          49.500    20647330.640    85844747.504       -2327.000          45.250  
R18  22474250.680   119969111.594        3967.855          50.500    22474256.800    93309312.113        3086.129          49.750  
R24  20380813.480   108985414.422       -2960.402          54.000    20380818.260    84766428.883       -2302.746          52.250  
R23  23467306.060   125534296.691       -4348.309          44.500    23467315.320    97637789.379       -3383.586          43.750  
R17  19247329.360   102996376.379        1122.047          53.500    19247334.320    80108291.508         873.586          52.000  
R 3  23374204.600   125123989.719        3900.504          46.500    23374210.940    97318667.668        3034.473          46.000  
G 9                                                                                                                                
G27                                                                                                                                
G28                                                                                                                                
G14                                                                                                                                
G12                                                                                                                                
G 7                                                                                                                                
G26                                                                                                                                
> 2020  9 16 11 52 53.0000000  0 20       0.000000000000
G19                                                                                                                                
G 3  20419024.660   107302702.051         785.441          53.500    20419026.440    83612507.371         611.844          51.500  
G 4  22792860.240   119777289.402        3435.605          48.500    22792860.240    93332956.867        2678.297          47.250  
G11  21916097.280   115169865.262       -3340.801          51.250                                                                  
G22  20669456.820   108618729.254        -631.039          54.000                                                                  
G 1  20387752.440   107138360.758       -1254.059          54.250    20387754.000    83484463.559        -976.355          51.250  
G17  22629028.340   118916345.492        1863.629          49.250    22629028.860    92662097.504        1451.562          47.750  
R 1  20647883.780   110374804.801       -2992.141          49.500    20647890.580    85847072.793       -2327.637          45.250  
R18  22473506.680   119965140.043        3969.641          50.500    22473512.640    93306223.145        3085.520          49.500  
R24  20381366.420   108988371.664       -2960.430          54.000    20381371.520    84768728.965       -2302.082          52.500  
R23  23468118.060   125538642.484       -4349.422          44.000    23468128.320    97641169.430       -3383.812          43.500  
R17  19247119.400   102995251.082        1122.215          53.500    19247124.540    80107416.281         872.875          52.000  
R 3  23373475.020   125120085.926        3901.355          46.250    23373482.080    97315631.402        3035.867          46.250  
G 9                                                                                                                                
G27                                                                                                                                
G28                                                                                                                                
G14                                                                                                                                
G12                                                                                                                                
G 7                                                                                                                                
G26                                                                                                                                
> 2020  9 16 11 52 54.0000000  0 20       0.000000000000
G19                                                                                                                                
G 3  20418874.820   107301914.414         785.266          53.500    20418876.540    83611893.625         611.195          51.500  
G 4  22792205.780   119773851.121        3434.766          48.750    22792205.940    93330277.688        2678.203          47.250  
G11  21916732.420   115173202.629       -3340.336          51.250                                                                  
G22  20669576.580   108619357.840        -631.430          54.000                                                                  
G 1  20387990.740   107139612.727       -1254.734          54.000    20387992.240    83485439.117        -977.723          51.500  
G17  22628673.280   118914480.391        1862.938          49.000    22628673.740    92660644.180        1452.805          47.750  
R 1  20648443.600   110377795.285       -2994.406          49.500    20648450.060    85849398.738       -2329.367          45.250  
R18  22472762.700   119961169.168        3968.594          50.750    22472769.140    93303134.668        3086.438          50.500  
R24  20381919.740   108991329.930       -2960.840          53.750    20381925.040    84771029.836       -2303.105          52.750  
R23  23468930.360   125542988.887       -4348.172          44.000    23468939.280    97644549.949       -3383.082          43.000  
R17  19246909.280   102994126.988        1120.609          53.750    19246914.480    80106541.984         872.324          52.250  
R 3  23372746.300   125116182.777        3901.438          46.250    23372753.380    97312595.574        3034.547          46.500  
G 9                                                                                                                                
G27                                                                                                                                
G28                                                                                                                                
G14                                                                                                                                
G12                                                                                                                                
G 7                                                                                                                                
G26                                                                                                                                
> 2020  9 16 11 52 55.0000000  0 20       0.000000000000
G19                                                                                                                                
G 3  20418725.140   107301127.367         784.793          53.500    20418726.560    83611280.352         610.617          51.500  
G 4  22791551.600   119770413.266        3436.605          48.750    22791551.560    93327598.844        2678.363          46.750  
G11  21917367.600   115176540.523       -3340.664          51.250                                                                  
G22  20669696.280   108619986.953        -632.141          53.750                                                                  
G 1  20388229.240   107140865.348       -1255.387          54.000    20388230.600    83486415.180        -978.082          51.250  
G17  22628318.360   118912615.992        1862.398          49.000    22628319.120    92659191.402        1450.859          47.500  
R 1  20649003.460   110380786.297       -2993.648          49.750    20649009.980    85851725.082       -2326.793          45.250  
R18  22472018.820   119957198.684        3967.594          50.750    22472024.560    93300046.504        3085.867          50.000  
R24  20382473.080   108994288.941       -2961.527          54.000    20382478.240    84773331.281       -2303.742          52.750  
R23  23469743.440   125547335.645       -4348.656          43.750    23469752.880    97647930.754       -3382.074          42.750  
R17  19246699.540   102993003.848        1120.129          53.750    19246704.380    80105668.426         871.582          52.250  
R 3  23372017.400   125112280.035        3900.340          46.500    23372023.900    97309560.125        3033.461          46.250  
G 9                                                                                                                                
G27                                                                                                                                
G28                                                                                                                                
G14                                                                                                                                
G12                                                                                                                                
G 7                                                                                                                                
G26                                                                                                                                
> 2020  9 16 11 52 56.0000000  0 20       0.000000000000
G19                                                                                                                                
G 3  20418575.460   107300340.887         784.438          53.250    20418576.740    83610667.496         611.230          51.750  
G 4  22790897.220   119766975.828        3434.945          48.250    22790897.400    93324920.316        2675.551          47.250  
G11  21918002.860   115179878.910       -3341.062          51.000                                                                  
G22  20669816.160   108620616.551        -632.102          53.500                                                                  
G 1  20388467.800   107142118.578       -1254.840          53.750    20388469.080    83487391.727        -977.738          51.500  
G17  22627963.700   118910752.227        1861.160          48.500    22627964.660    92657739.117        1450.887          48.000  
R 1  20649562.800   110383777.816       -2993.645          49.750    20649569.300    85854051.828       -2326.715          45.250  
R18  22471274.520   119953228.539        3968.070          50.750    22471280.540    93296958.617        3086.289          50.000  
R24  20383026.480   108997248.691       -2962.020          54.250    20383031.940    84775633.305       -2304.305          52.750  
R23  23470555.840   125551682.695       -4349.578          43.750    23470563.940    97651311.785       -3382.508          42.750  
R17  19246489.900   102991881.586        1119.539          53.750    19246494.640    80104795.551         870.012          52.250  
R 3  23371289.100   125108377.637        3900.027          46.500    23371295.040    97306524.930        3033.379          46.000  
G 9                                                                                                                                
G27                                                                                                                                
G28                                                                                                                                
G14                                                                                                                                
G12                                                                                                                                
G 7                                                                                                                                
G26                                                                                                                                
> 2020  9 16 11 52 57.0000000  0 20       0.000000000000
G19                                                                                                                                
G 3  20418425.960   107299554.508         782.957          53.250    20418427.080    83610054.738         610.406          51.750  
G 4  22790243.240   119763538.363        3434.758          48.250    22790243.100    93322241.770        2675.055          47.000  
G11  21918638.000   115183217.355       -3340.094          50.750                                                                  
G22  20669936.000   108621246.199        -632.820          53.250                                                                  
G 1  20388706.620   107143371.996       -1256.512          54.000    20388707.680    83488368.406        -979.762          51.750  
G17  22627609.080   118908888.691        1860.418          48.500    22627609.960    92656287.016        1450.422          47.750  
R 1  20650122.940   110386769.406       -2993.078          49.750    20650129.080    85856378.613       -2331.375          45.250  
R18  22470530.880   119949258.301        3967.590          50.750    22470537.060    93293870.645        3085.898          50.000  
R24  20383579.980   109000208.746       -2963.133          54.250    20383585.360    84777935.574       -2304.930          52.500  
R23  23471367.920   125556029.617       -4351.406          43.750    23471375.700    97654692.723       -3384.598          42.750  
R17  19246279.880   102990759.766        1117.938          53.750    19246284.760    80103923.027         870.820          52.250  
R 3  23370560.500   125104475.121        3899.273          46.500    23370566.960    97303489.672        3033.965          46.500  
G 9                                                                                                                                
G27                                                                                                                                
G28                                                                                                                                
G14                                                                                                                                
G12                                                                                                                                
G 7                                                                                                                                
G26                                                                                                                                
> 2020  9 16 11 52 58.0000000  0 20       0.000000000000
G19                                                                                                                                
G 3  20418276.460   107298768.645         782.785          53.250    20418277.480    83609442.383         609.941          51.750  
G 4  22789589.200   119760101.230        3435.434          48.250    22789588.660    93319563.484        2677.383          46.750  
G11  21919273.260   115186556.246       -3341.316          50.750                                                                  
G22  20670055.920   108621876.281        -632.949          53.500                                                                  
G 1  20388945.420   107144625.957       -1256.535          54.000    20388946.300    83489345.535        -979.426          51.500  
G17  22627254.800   118907025.742        1859.430          48.750    22627255.300    92654835.367        1448.418          47.750  
R 1  20650682.580   110389761.445       -2994.375          50.000    20650688.840    85858705.754       -2330.551          45.500  
R18  22469787.260   119945288.379        3967.543          51.000    22469793.460    93290782.934        3085.418          50.000  
R24  20384133.280   109003169.477       -2963.766          54.250    20384139.260    84780238.367       -2305.336          52.750  
R23  23472179.980   125560376.824       -4351.395          43.250    23472188.620    97658073.832       -3382.887          42.500  
R17  19246070.220   102989638.816        1118.016          53.750    19246075.440    80103051.172         869.402          52.250  
R 3  23369832.100   125100572.902        3899.395          46.750    23369838.280    97300454.609        3032.961          46.500  
G 9                                                                                                                                
G27                                                                                                                                
G28                                                                                                                                
G14                                                                                                                                
G12                                                                                                                                
G 7                                                                                                                                
G26                                                                                                                                
> 2020  9 16 11 52 59.0000000  0 20       0.000000000000
G19                                                                                                                                
G 3  20418126.860   107297982.520         781.980          53.250    20418127.840    83608829.820         609.625          51.500  
G 4  22788934.940   119756663.723        3433.211          48.000    22788934.040    93316884.918        2677.430          46.500  
G11  21919908.220   115189894.840       -3341.742          50.500                                                                  
G22  20670175.780   108622506.055        -632.805          53.250                                                                  
G 1  20389184.080   107145879.746       -1257.379          53.750    20389184.900    83490322.504        -980.480          51.500  
G17  22626900.340   118905162.648        1859.047          48.500    22626900.740    92653383.609        1448.637          47.750  
R 1  20651241.720   110392753.176       -2994.984          50.000    20651248.420    85861032.660       -2330.039          45.250  
R18  22469043.000   119941318.012        3967.492          50.750    22469049.280    93287694.871        3086.207          50.000  
R24  20384687.020   109006130.102       -2963.922          54.250    20384692.980    84782541.078       -2305.316          52.750  
R23  23472992.040   125564723.488       -4351.449          44.500    23473000.660    97661454.594       -3384.980          42.000  
R17  19245860.280   102988517.969        1116.918          53.750    19245866.100    80102179.414         868.875          52.250  
R 3  23369103.500   125096670.215        3900.281          46.750    23369109.600    97297419.184        3032.430          46.250  
G 9                                                                                                                                
G27                                                                                                                                
G28                                                                                                                                
G14                                                                                                                                
G12                                                                                                                                
G 7                                                                                                                                
G26                                                                                                                                
> 2020  9 16 11 53  0.0000000  0 20       0.000000000000
G19                                                                                                                                
G 3  20417978.060   107297200.273         782.305          53.250    20417979.060    83608220.277         609.758          51.500  
G 4  22788281.660   119753229.922        3433.523          47.750    22788280.400    93314209.230        2674.887          46.500  
G11  21920544.260   115193237.238       -3342.902          50.250                                                                  
G22  20670296.320   108623139.633        -633.750          53.250                                                                  
G 1  20389423.420   107147137.461       -1258.840          53.750    20389424.180    83491302.543        -980.293          51.750  
G17  22626546.820   118903303.500        1859.980          48.500    22626546.800    92651934.918        1448.355          47.750  
R 1  20651801.800   110395748.773       -2996.184          49.500    20651809.160    85863362.566       -2330.465          45.000  
R18  22468300.040   119937351.367        3967.465          50.500    22468306.120    93284609.699        3085.570          49.750  
R24  20385241.220   109009094.809       -2964.523          53.750    20385247.700    84784846.957       -2306.801          52.750  
R23  23473805.280   125569073.832       -4350.621          43.000    23473814.640    97664838.195       -3382.023          41.750  
R17  19245651.520   102987401.414        1116.512          53.250    19245657.640    80101310.984         868.164          52.000  
R 3  23368375.720   125092771.230        3899.098          46.500    23368381.260    97294386.656        3031.633          45.750  
G 9                                                                                                                                
G27                                                                                                                                
G28                                                                                                                                
G14                                                                                                                                
G12                                                                                                                                
G 7                                                                                                                                
G26                                                                                                                                
> 2020  9 16 11 53  1.0000000  0 20       0.000000000000
G19                                                                                                                                
G 3  20417828.940   107296416.043         781.324          53.250    20417829.820    83607609.191         609.770          51.500  
G 4  22787627.600   119749794.016        3432.984          47.750    22787626.200    93311531.895        2675.965          46.250  
G11  21921179.780   115196577.613       -3343.344          50.250                                                                  
G22  20670416.520   108623771.180        -634.078          53.250                                                                  
G 1  20389662.520   107148393.258       -1257.855          54.000    20389663.260    83492281.090        -980.520          51.750  
G17  22626192.900   118901442.465        1857.336          48.750    22626192.540    92650484.773        1449.324          47.750  
R 1  20652361.660   110398742.316       -2995.008          49.250    20652368.700    85865690.875       -2330.230          45.000  
R18  22467555.920   119933382.531        3965.699          50.250    22467562.500    93281522.820        3085.617          49.750  
R24  20385795.180   109012057.707       -2965.605          53.750    20385801.820    84787151.434       -2306.742          52.750  
R23  23474617.640   125573421.895       -4350.660          43.250    23474626.840    97668220.023       -3385.188          41.500  
R17  19245442.900   102986283.191        1116.109          53.250    19245448.980    80100441.250         868.348          52.000  
R 3  23367647.360   125088870.039        3898.582          46.250    23367651.800    97291352.406        3032.664          45.750  
G 9                                                                                                                                
G27                                                                                                                                
G28                                                                                                                                
G14                                                                                                                                
G12                                                                                                                                
G 7                                                                                                                                
G26                                                                                                                                
> 2020  9 16 11 53  2.0000000  0 20       0.000000000000
G19                                                                                                                                
G 3  20417679.800   107295632.383         781.094          53.750    20417680.680    83606998.543         608.441          51.750  
G 4  22786973.720   119746358.512        3432.629          48.250    22786972.480    93308854.879        2673.934          46.500  
G11  21921815.420   115199918.473       -3342.535          50.750                                                                  
G22  20670536.940   108624403.207        -634.293          54.000                                                                  
G 1  20389901.800   107149649.676       -1259.668          54.500    20389902.480    83493260.117        -981.176          52.000  
G17  22625838.880   118899582.086        1857.480          49.000    22625838.240    92649035.121        1447.344          47.750  
R 1  20652921.280   110401736.363       -2995.469          49.000    20652928.760    85868019.566       -2330.562          45.000  
R18  22466812.200   119929414.043        3965.949          50.000    22466819.060    93278436.219        3083.871          49.750  
R24  20386349.860   109015021.336       -2966.645          53.750    20386356.000    84789456.492       -2306.492          52.750  
R23  23475430.220   125577770.262       -4351.973          43.000    23475439.660    97671602.082       -3384.074          41.750  
R17  19245234.120   102985165.855        1114.250          53.250    19245240.100    80099572.215         866.801          52.250  
R 3  23366919.700   125084969.215        3898.246          46.250    23366922.820    97288318.434        3031.898          45.750  
G 9                                                                                                                                
G27                                                                                                                                
G28                                                                                                                                
G14                                                                                                                                
G12                                                                                                                                
G 7                                                                                                                                
G26                                                                                                                                
> 2020  9 16 11 53  3.0000000  0 20       0.000000000000
G19                                                                                                                                
G 3  20417530.700   107294848.602         781.004          54.250    20417531.500    83606387.805         608.602          51.750  
G 4  22786319.660   119742922.734        3431.727          48.500    22786318.520    93306177.656        2675.008          46.250  
G11  21922450.980   115203259.191       -3343.488          51.250                                                                  
G22  20670657.140   108625035.062        -635.680          54.250                                                                  
G 1  20390140.840   107150906.039       -1258.824          55.000    20390141.740    83494239.098        -982.570          52.000  
G17  22625485.000   118897721.684        1856.984          49.750    22625484.340    92647585.453        1447.199          47.750  
R 1  20653481.300   110404730.246       -2997.660          49.250    20653488.220    85870348.148       -2330.180          45.000  
R18  22466068.760   119925445.238        3965.129          50.250    22466075.940    93275349.371        3084.094          49.750  
R24  20386903.940   109017985.016       -2967.598          54.000    20386910.340    84791761.582       -2307.500          52.750  
R23  23476243.160   125582118.270       -4350.000          43.250    23476252.620    97674983.844       -3384.613          41.750  
R17  19245025.280   102984048.762        1113.453          53.500    19245031.260    80098703.352         866.336          52.250  
R 3  23366190.500   125081068.074        3897.695          46.250    23366194.100    97285284.223        3032.340          45.500  
G 9                                                                                                                                
G27                                                                                                                                
G28                                                                                                                                
G14                                                                                                                                
G12                                                                                                                                
G 7                                                                                                                                
G26                                                                                                                                
> 2020  9 16 11 53  4.0000000  0 20       0.000000000000
G19                                                                                                                                
G 3  20417381.540   107294064.613         780.098          54.500    20417382.380    83605776.906         607.988          51.500  
G 4  22785665.580   119739486.625        3432.164          48.500    22785664.380    93303500.160        2672.945          46.000  
G11  21923086.620   115206599.633       -3343.180          51.250                                                                  
G22  20670777.380   108625666.645        -634.785          54.500                                                                  
G 1  20390379.840   107152162.246       -1259.703          55.250    20390380.760    83495217.957        -981.332          51.750  
G17  22625130.840   118895861.148        1856.387          49.500    22625130.340    92646135.695        1448.148          47.750  
R 1  20654041.620   110407723.855       -2997.762          49.250    20654048.260    85872676.508       -2331.461          45.000  
R18  22465325.040   119921476.012        3964.992          50.250    22465332.020    93272262.191        3084.680          49.750  
R24  20387457.960   109020948.672       -2967.910          54.000    20387464.860    84794066.633       -2307.594          53.000  
R23  23477056.120   125586465.754       -4351.727          44.000    23477065.820    97678365.227       -3385.246          41.750  
R17  19244816.680   102982931.824        1112.984          53.500    19244822.760    80097834.633         864.504          52.500  
R 3  23365461.940   125077166.492        3897.590          46.500    23365465.240    97282249.660        3032.312          45.500  
G 9                                                                                                                                
G27                                                                                                                                
G28                                                                                                                                
G14                                                                                                                                
G12                                                                                                                                
G 7                                                                                                                                
G26                                                                                                                                
> 2020  9 16 11 53  5.0000000  0 20       0.000000000000
G19                                                                                                                                
G 3  20417232.560   107293281.859         779.648          54.500    20417233.340    83605166.969         607.477          51.500  
G 4  22785011.700   119736051.586        3433.312          48.250    22785010.600    93300823.496        2674.527          45.750  
G11  21923722.400   115209941.242       -3344.684          51.250                                                                  
G22  20670897.780   108626299.398        -635.605          54.500                                                                  
G 1  20390619.100   107153419.750       -1260.117          55.250    20390619.920    83496197.836        -982.328          51.750  
G17  22624776.980   118894001.953        1855.988          49.500    22624776.340    92644686.965        1445.922          47.500  
R 1  20654601.800   110410718.668       -2996.270          49.250    20654608.300    85875005.809       -2334.195          44.750  
R18  22464581.900   119917507.824        3965.402          50.250    22464588.780    93269175.820        3083.969          49.750  
R24  20388012.020   109023913.734       -2967.973          53.750    20388019.300    84796372.809       -2308.199          53.000  
R23  23477869.280   125590814.258       -4351.508          44.250    23477879.500    97681747.418       -3383.926          41.500  
R17  19244608.320   102981816.488        1112.684          53.500    19244614.360    80096967.145         865.297          52.500  
R 3  23364734.180   125073265.930        3898.309          46.500    23364736.920    97279215.895        3031.832          45.500  
G 9                                                                                                                                
G27                                                                                                                                
G28                                                                                                                                
G14                                                                                                                                
G12                                                                                                                                
G 7                                                                                                                                
G26                                                                                                                                
> 2020  9 16 11 53  6.0000000  0 20       0.000000000000
G19                                                                                                                                
G 3  20417083.700   107292499.781         780.641          54.000    20417084.520    83604557.555         607.578          51.500  
G 4  22784358.060   119732617.055        3432.836          48.000    22784356.660    93298147.254        2673.320          46.000  
G11  21924358.300   115213283.461       -3344.398          50.750                                                                  
G22  20671018.280   108626932.758        -635.586          54.250                                                                  
G 1  20390858.460   107154677.977       -1261.785          54.750    20390859.460    83497178.273        -982.598          51.750  
G17  22624423.140   118892143.512        1855.254          49.000    22624422.680    92643238.820        1446.645          47.750  
R 1  20655162.180   110413714.086       -2999.141          49.250    20655168.420    85877335.574       -2332.164          44.500  
R18  22463838.680   119913540.125        3966.035          50.250    22463845.160    93266089.840        3084.430          49.500  
R24  20388566.700   109026879.676       -2968.621          53.750    20388573.940    84798679.652       -2307.711          52.750  
R23  23478682.920   125595163.191       -4351.168          44.500    23478692.880    97685129.926       -3383.930          41.500  
R17  19244400.140   102980702.160        1112.074          53.750    19244406.140    80096100.449         865.000          52.250  
R 3  23364006.100   125069365.836        3897.113          46.500    23364008.040    97276182.496        3031.738          45.000  
G 9                                                                                                                                
G27                                                                                                                                
G28                                                                                                                                
G14                                                                                                                                
G12                                                                                                                                
G 7                                                                                                                                
G26                                                                                                                                
> 2020  9 16 11 53  7.0000000  0 20       0.000000000000
G19                                                                                                                                
G 3  20416934.880   107291718.336         779.469          53.500    20416935.840    83603948.637         606.891          51.500  
G 4  22783704.560   119729183.047        3432.719          47.250    22783703.300    93295471.395        2675.461          46.000  
G11  21924994.340   115216626.266       -3344.832          50.250                                                                  
G22  20671138.940   108627566.680        -636.660          53.500                                                                  
G 1  20391097.940   107155936.902       -1260.883          54.000    20391099.040    83498159.258        -983.020          52.000  
G17  22624069.220   118890285.793        1855.961          48.250    22624069.060    92641791.250        1445.609          47.750  
R 1  20655722.660   110416710.094       -2999.270          49.000    20655728.640    85879665.812       -2332.664          44.750  
R18  22463095.740   119909572.883        3964.820          50.250    22463102.320    93263004.207        3083.625          49.500  
R24  20389121.800   109029846.449       -2969.340          54.000    20389129.000    84800987.145       -2309.965          52.750  
R23  23479496.500   125599512.523       -4350.031          44.500    23479506.240    97688512.746       -3383.707          41.750  
R17  19244192.140   102979588.836        1110.902          53.500    19244198.540    80095234.535         863.422          52.250  
R 3  23363277.640   125065466.160        3897.215          46.500    23363279.260    97273149.418        3033.105          45.000  
G 9                                                                                                                                
G27                                                                                                                                
G28                                                                                                                                
G14                                                                                                                                
G12                                                                                                                                
G 7                                                                                                                                
G26                                                                                                                                
> 2020  9 16 11 53  8.0000000  0 20       0.000000000000
G19                                                                                                                                
G 3  20416786.100   107290937.402         778.543          53.500    20416787.200    83603340.121         607.078          51.500  
G 4  22783050.980   119725749.391        3432.453          47.500    22783050.100    93292795.824        2673.012          46.000  
G11  21925630.640   115219969.527       -3346.340          50.000                                                                  
G22  20671259.760   108628201.066        -636.863          53.500                                                                  
G 1  20391337.480   107157196.406       -1261.223          54.000    20391338.840    83499140.691        -983.852          51.750  
G17  22623715.840   118888428.695        1856.023          48.250    22623715.820    92640344.156        1443.914          47.500  
R 1  20656282.980   110419706.578       -2998.438          49.250    20656289.220    85881996.395       -2332.992          44.750  
R18  22462352.920   119905605.984        3965.645          50.250    22462359.280    93259918.844        3083.523          49.750  
R24  20389676.800   109032813.898       -2970.070          54.000    20389684.040    84803295.168       -2309.938          53.000  
R23  23480309.420   125603862.148       -4352.180          44.500    23480318.760    97691895.777       -3385.473          41.750  
R17  19243984.220   102978476.414        1109.418          53.500    19243990.440    80094369.316         862.941          52.500  
R 3  23362549.640   125061566.836        3897.633          46.500    23362550.840    97270116.594        3030.645          45.250  
G 9                                                                                                                                
G27                                                                                                                                
G28                                                                                                                                
G14                                                                                                                                
G12                                                                                                                                
G 7                                                                                                                                
G26                                                                                                                                
> 2020  9 16 11 53  9.0000000  0 20       0.000000000000
G19                                                                                                                                
G 3  20416637.480   107290156.477         778.844          53.500    20416638.520    83602731.609         605.648          51.250  
G 4  22782397.640   119722315.598        3431.176          47.500    22782396.680    93290120.133        2674.707          46.000  
G11  21926266.820   115223312.730       -3345.395          50.250                                                                  
G22  20671380.440   108628835.391        -637.035          53.500                                                                  
G 1  20391577.160   107158455.980       -1262.176          54.000    20391578.440    83500122.172        -982.250          51.750  
G17  22623362.360   118886571.680        1853.711          48.250    22623362.480    92638897.137        1444.090          47.500  
R 1  20656843.660   110422703.000       -2999.191          49.250    20656850.020    85884326.957       -2331.895          44.500  
R18  22461609.740   119901638.863        3964.211          50.500    22461615.880    93256833.309        3083.867          49.750  
R24  20390231.800   109035781.492       -2970.270          54.000    20390239.100    84805603.285       -2310.871          53.000  
R23  23481122.640   125608211.512       -4351.023          45.000    23481132.240    97695278.625       -3383.926          42.000  
R17  19243776.760   102977364.336        1109.469          53.750    19243782.640    80093504.371         863.324          52.500  
R 3  23361821.300   125057667.277        3896.535          46.250    23361822.700    97267083.633        3032.785          45.000  
G 9                                                                                                                                
G27                                                                                                                                
G28                                                                                                                                
G14                                                                                                                                
G12                                                                                                                                
G 7                                                                                                                                
G26                                                                                                                                
> 2020  9 16 11 53 10.0000000  0 20       0.000000000000
G19                                                                                                                                
G 3  20416489.000   107289376.418         778.047          53.500    20416489.980    83602123.770         607.270          51.250  
G 4  22781744.680   119718882.512        3430.770          47.500    22781743.640    93287445.016        2672.570          46.250  
G11  21926903.300   115226656.746       -3346.152          50.250                                                                  
G22  20671501.240   108629470.512        -636.164          53.500                                                                  
G 1  20391816.960   107159716.465       -1262.867          54.000    20391818.240    83501104.371        -983.430          51.750  
G17  22623009.280   118884715.621        1854.156          48.500    22623009.540    92637450.863        1444.133          47.500  
R 1  20657404.400   110425700.238       -2998.246          49.250    20657410.660    85886658.141       -2330.652          44.500  
R18  22460866.900   119897672.410        3964.551          50.500    22460872.700    93253748.293        3084.434          49.750  
R24  20390787.100   109038750.102       -2971.402          54.250    20390794.460    84807912.199       -2311.129          53.000  
R23  23481936.500   125612561.504       -4353.078          45.000    23481946.140    97698661.957       -3384.902          41.750  
R17  19243569.500   102976253.480        1109.355          53.750    19243575.280    80092640.367         861.934          52.750  
R 3  23361092.780   125053768.406        3895.887          46.250    23361094.280    97264051.164        3031.715          45.000  
G 9                                                                                                                                
G27                                                                                                                                
G28                                                                                                                                
G14                                                                                                                                
G12                                                                                                                                
G 7                                                                                                                                
G26                                                                                                                                
> 2020  9 16 11 53 11.0000000  0 20       0.000000000000
G19                                                                                                                                
G 3  20416341.020   107288598.895         777.363          53.750    20416342.100    83601517.898         606.242          51.250  
G 4  22781091.760   119715451.828        3430.871          47.750    22781090.900    93284771.746        2671.930          46.250  
G11  21927540.040   115230003.238       -3347.043          50.000                                                                  
G22  20671622.580   108630108.113        -637.492          53.750                                                                  
G 1  20392057.260   107160979.551       -1263.527          54.250    20392058.680    83502088.594        -983.930          52.000  
G17  22622656.460   118882862.203        1853.891          48.500    22622656.800    92636006.637        1443.727          47.500  
R 1  20657965.720   110428699.996       -3000.652          49.500    20657971.080    85888991.285       -2333.777          44.750  
R18  22460124.400   119893708.320        3963.395          50.250    22460129.940    93250665.113        3083.328          49.750  
R24  20391342.960   109041721.480       -2971.750          54.500    20391349.940    84810223.281       -2311.195          53.000  
R23  23482749.200   125616913.805       -4352.590          45.000    23482758.560    97702047.082       -3384.973          42.250  
R17  19243362.500   102975145.570        1107.531          54.000    19243368.180    80091778.656         861.145          52.500  
R 3  23360364.700   125049871.887        3896.738          46.250    23360366.220    97261020.527        3030.465          45.000  
G 9                                                                                                                                
G27                                                                                                                                
G28                                                                                                                                
G14                                                                                                                                
G12                                                                                                                                
G 7                                                                                                                                
G26                                                                                                                                
> 2020  9 16 11 53 12.0000000  0 20       0.000000000000
G19                                                                                                                                
G 3  20416192.740   107287819.453         777.090          53.750    20416193.620    83600910.547         605.480          51.500  
G 4  22780438.660   119712019.082        3429.816          48.000    22780437.780    93282096.879        2672.598          46.500  
G11  21928176.460   115233347.758       -3345.922          50.250                                                                  
G22  20671743.480   108630743.734        -638.367          53.750                                                                  
G 1  20392297.200   107162240.789       -1263.922          54.250    20392298.660    83503071.383        -984.539          52.250  
G17  22622303.440   118881006.957        1852.828          48.750    22622303.880    92634560.992        1444.102          47.500  
R 1  20658526.980   110431697.738       -3000.914          49.500    20658533.020    85891322.859       -2332.934          44.750  
R18  22459381.420   119889742.094        3963.496          50.500    22459386.600    93247580.266        3082.754          49.750  
R24  20391898.820   109044691.121       -2972.746          54.500    20391905.140    84812533.000       -2312.512          52.750  
R23  23483562.500   125621263.914       -4353.484          44.750    23483571.520    97705430.500       -3386.438          42.000  
R17  19243155.620   102974036.043        1106.723          54.000    19243160.840    80090915.691         859.641          52.500  
R 3  23359635.760   125045973.211        3896.070          46.250    23359637.860    97257988.230        3030.242          44.750  
G 9                                                                                                                                
G27                                                                                                                                
G28                                                                                                                                
G14                                                                                                                                
G12                                                                                                                                
G 7                                                                                                                                
G26                                                                                                                                
> 2020  9 16 11 53 13.0000000  0 20       0.000000000000
G19                                                                                                                                
G 3  20416044.640   107287040.930         776.215          53.750    20416045.340    83600303.906         604.887          51.500  
G 4  22779785.760   119708587.105        3429.195          48.000    22779784.680    93279422.617        2671.363          46.750  
G11  21928812.840   115236693.141       -3348.184          50.250                                                                  
G22  20671864.540   108631380.203        -638.898          53.750                                                                  
G 1  20392537.420   107163502.996       -1264.160          54.250    20392539.000    83504054.914        -985.395          52.250  
G17  22621950.660   118879152.727        1851.453          48.750    22621951.000    92633116.125        1442.812          47.500  
R 1  20659087.740   110434696.355       -3000.926          49.500    20659094.300    85893655.113       -2335.102          44.750  
R18  22458638.560   119885776.609        3962.531          50.500    22458643.720    93244495.996        3082.438          49.750  
R24  20392454.580   109047661.883       -2972.945          54.500    20392460.540    84814843.586       -2312.121          52.750  
R23  23484376.260   125625614.727       -4352.641          44.500    23484385.660    97708814.441       -3387.691          41.250  
R17  19242948.660   102972927.797        1106.363          54.000    19242953.880    80090053.719         858.969          52.500  
R 3  23358908.000   125042075.227        3895.609          46.500    23358909.360    97254956.477        3029.891          44.500  
G 9                                                                                                                                
G27                                                                                                                                
G28                                                                                                                                
G14                                                                                                                                
G12                                                                                                                                
G 7                                                                                                                                
G26                                                                                                                                
> 2020  9 16 11 53 14.0000000  0 20       0.000000000000
G19                                                                                                                                
G 3  20415896.480   107286262.199         775.879          54.000    20415897.140    83599697.109         604.484          51.500  
G 4  22779132.480   119705154.773        3428.324          48.000    22779131.760    93276748.062        2672.047          46.750  
G11  21929449.380   115240038.250       -3347.406          50.250                                                                  
G22  20671985.500   108632016.402        -638.730          53.750                                                                  
G 1  20392777.640   107164765.059       -1264.496          54.500    20392779.140    83505038.340        -985.320          52.500  
G17  22621597.780   118877298.375        1851.426          49.000    22621598.100    92631671.168        1443.883          47.750  
R 1  20659648.620   110437694.707       -3002.082          49.750    20659654.520    85895987.164       -2333.324          45.000  
R18  22457895.520   119881810.719        3961.641          50.500    22457900.940    93241411.410        3082.629          49.750  
R24  20393010.120   109050632.578       -2973.582          54.750    20393015.820    84817154.129       -2312.684          52.750  
R23  23485189.720   125629965.031       -4354.867          44.500    23485198.720    97712198.012       -3384.508          41.500  
R17  19242741.680   102971819.684        1105.188          54.250    19242746.660    80089191.855         858.945          52.500  
R 3  23358180.320   125038176.812        3894.980          46.750    23358180.480    97251924.367        3032.164          44.500  
G 9                                                                                                                                
G27                                                                                                                                
G28                                                                                                                                
G14                                                                                                                                
G12                                                                                                                                
G 7                                                                                                                                
G26                                                                                                                                
> 2020  9 16 11 53 15.0000000  0 20       0.000000000000
G19                                                                                                                                
G 3  20415748.380   107285483.980         775.914          54.000    20415749.060    83599090.699         604.004          51.500  
G 4  22778479.420   119701722.797        3429.016          48.000    22778479.020    93274073.812        2672.496          47.000  
G11  21930086.000   115243383.797       -3347.746          50.000                                                                  
G22  20672106.600   108632653.035        -639.035          53.750                                                                  
G 1  20393017.960   107166027.684       -1265.234          54.500    20393019.560    83506022.203        -986.254          52.500  
G17  22621245.060   118875444.613        1851.730          48.750    22621245.460    92630226.688        1442.445          47.500  
R 1  20660209.820   110440693.500       -3000.863          49.750    20660215.760    85898319.566       -2334.223          45.000  
R18  22457152.280   119877845.121        3962.719          50.500    22457158.080    93238327.066        3081.496          49.750  
R24  20393565.860   109053603.914       -2974.043          54.750    20393571.260    84819465.168       -2312.758          52.500  
R23  23486003.040   125634315.598       -4352.453          44.500    23486012.400    97715581.793       -3386.648          41.250  
R17  19242534.740   102970712.438        1104.793          54.250    19242539.620    80088330.672         858.738          52.500  
R 3  23357452.160   125034278.695        3894.789          46.750    23357452.120    97248892.496        3030.875          44.250  
G 9                                                                                                                                
G27                                                                                                                                
G28                                                                                                                                
G14                                                                                                                                
G12                                                                                                                                
G 7                                                                                                                                
G26                                                                                                                                
> 2020  9 16 11 53 16.0000000  0 20       0.000000000000
G19                                                                                                                                
G 3  20415600.440   107284706.379         776.316          53.750    20415601.140    83598484.781         603.246          51.500  
G 4  22777826.460   119698291.309        3429.398          48.000    22777826.220    93271399.926        2673.000          47.000  
G11  21930722.800   115246729.953       -3347.074          50.000                                                                  
G22  20672227.820   108633290.242        -639.676          53.500                                                                  
G 1  20393258.520   107167291.000       -1265.574          54.250    20393260.100    83507006.605        -986.352          52.500  
G17  22620892.780   118873591.578        1849.926          48.750    22620892.660    92628782.770        1442.512          47.500  
R 1  20660770.400   110443692.891       -3001.621          49.500    20660776.740    85900652.430       -2331.766          44.750  
R18  22456409.380   119873879.977        3962.773          50.250    22456415.320    93235243.062        3081.848          49.750  
R24  20394122.000   109056576.066       -2974.684          54.500    20394126.940    84821776.840       -2313.484          52.500  
R23  23486815.860   125638666.562       -4354.531          44.250    23486825.960    97718965.887       -3385.488          41.250  
R17  19242327.620   102969606.180        1103.504          54.000    19242332.780    80087470.246         858.023          52.250  
R 3  23356723.640   125030381.027        3896.043          46.500    23356724.000    97245860.988        3030.496          44.250  
G 9                                                                                                                                
G27                                                                                                                                
G28                                                                                                                                
G14                                                                                                                                
G12                                                                                                                                
G 7                                                                                                                                
G26                                                                                                                                
> 2020  9 16 11 53 17.0000000  0 20       0.000000000000
G19                                                                                                                                
G 3  20415452.680   107283929.305         774.152          53.750    20415453.220    83597879.266         603.090          51.500  
G 4  22777173.520   119694860.203        3427.148          47.750    22777173.360    93268726.344        2671.441          47.250  
G11  21931359.600   115250076.543       -3348.797          49.750                                                                  
G22  20672349.160   108633927.906        -639.977          53.250                                                                  
G 1  20393499.140   107168554.898       -1265.758          54.250    20393500.640    83507991.461        -986.438          52.500  
G17  22620540.300   118871739.168        1850.742          48.750    22620539.760    92627339.324        1441.730          47.250  
R 1  20661331.980   110446692.750       -3002.750          49.500    20661338.920    85902985.660       -2333.043          44.750  
R18  22455666.740   119869915.160        3962.293          50.250    22455672.600    93232159.328        3081.773          50.000  
R24  20394677.900   109059548.941       -2975.316          54.750    20394682.520    84824089.070       -2314.234          52.250  
R23  23487629.060   125643017.805       -4353.609          44.250    23487639.360    97722350.168       -3387.938          41.000  
R17  19242120.740   102968500.766        1102.180          54.000    19242125.960    80086610.480         857.660          52.250  
R 3  23355995.100   125026483.688        3894.793          46.250    23355996.140    97242829.723        3030.930          44.250  
G 9                                                                                                                                
G27                                                                                                                                
G28                                                                                                                                
G14                                                                                                                                
G12                                                                                                                                
G 7                                                                                                                                
G26                                                                                                                                
> 2020  9 16 11 53 18.0000000  0 20       0.000000000000
G19                                                                                                                                
G 3  20415304.920   107283152.906         774.098          54.000    20415305.620    83597274.277         603.172          51.750  
G 4  22776520.820   119691429.617        3427.664          48.250    22776520.660    93266053.164        2671.789          47.250  
G11  21931996.480   115253423.754       -3350.066          49.750                                                                  
G22  20672470.560   108634566.172        -640.184          53.500                                                                  
G 1  20393739.720   107169819.535       -1266.773          54.250    20393741.360    83508976.891        -986.816          52.750  
G17  22620187.980   118869887.512        1850.312          48.750    22620187.200    92625896.469        1440.715          47.250  
R 1  20661893.560   110449693.230       -3002.223          49.500    20661899.880    85905319.352       -2336.246          44.750  
R18  22454924.080   119865950.816        3962.258          50.000    22454930.060    93229075.941        3081.273          50.000  
R24  20395233.720   109062522.691       -2976.168          54.500    20395238.340    84826401.984       -2314.898          52.250  
R23  23488442.800   125647369.469       -4353.855          44.250    23488452.580    97725734.785       -3385.594          41.250  
R17  19241914.560   102967396.414        1102.324          54.000    19241919.300    80085751.539         856.270          52.250  
R 3  23355266.160   125022586.809        3894.145          46.000    23355268.180    97239798.812        3029.469          44.250  
G 9                                                                                                                                
G27                                                                                                                                
G28                                                                                                                                
G14                                                                                                                                
G12                                                                                                                                
G 7                                                                                                                                
G26                                                                                                                                
> 2020  9 16 11 53 19.0000000  0 20       0.000000000000
G19                                                                                                                                
G 3  20415157.320   107282377.094         774.125          54.000    20415158.040    83596669.746         602.797          51.750  
G 4  22775868.260   119687999.473        3428.270          48.250    22775868.080    93263380.312        2670.785          47.250  
G11  21932633.540   115256771.484       -3349.070          49.750                                                                  
G22  20672592.040   108635204.953        -641.219          53.500                                                                  
G 1  20393980.480   107171084.797       -1267.699          54.500    20393982.320    83509962.805        -987.684          52.750  
G17  22619835.660   118868036.535        1848.699          49.000    22619834.900    92624454.148        1440.781          47.000  
R 1  20662454.700   110452694.234       -3002.945          49.500    20662461.440    85907653.473       -2335.055          44.750  
R18  22454181.720   119861986.848        3962.652          50.500    22454187.920    93225992.848        3081.027          50.000  
R24  20395789.820   109065497.195       -2977.422          54.750    20395794.380    84828715.496       -2314.984          52.250  
R23  23489256.680   125651721.469       -4353.582          44.500    23489265.940    97729119.672       -3386.492          41.500  
R17  19241708.220   102966293.047        1101.203          54.000    19241713.020    80084893.367         856.289          52.250  
R 3  23354538.260   125018690.316        3894.672          46.250    23354540.560    97236768.223        3029.473          44.000  
G 9                                                                                                                                
G27                                                                                                                                
G28                                                                                                                                
G14                                                                                                                                
G12                                                                                                                                
G 7                                                                                                                                
G26                                                                                                                                
> 2020  9 16 11 53 20.0000000  0 20       0.000000000000
G19                                                                                                                                
G 3  20415009.700   107281600.891         773.410          54.250    20415010.360    83596064.918         602.684          51.750  
G 4  22775215.460   119684568.789        3427.715          48.500    22775215.480    93260707.066        2671.371          47.250  
G11  21933270.520   115260118.777       -3350.363          49.750                                                                  
G22  20672713.480   108635843.285        -641.070          53.500                                                                  
G 1  20394221.080   107172349.738       -1267.668          54.500    20394223.020    83510948.473        -988.281          52.750  
G17  22619483.620   118866185.273        1847.289          49.000    22619482.620    92623011.609        1441.336          47.000  
R 1  20663016.180   110455694.797       -3001.957          49.500    20663022.000    85909987.230       -2334.402          44.750  
R18  22453438.740   119858022.266        3961.664          50.250    22453444.980    93222909.297        3081.445          50.000  
R24  20396346.100   109068471.461       -2976.871          54.750    20396350.660    84831028.797       -2316.016          52.250  
R23  23490069.740   125656072.820       -4353.402          44.500    23490079.940    97732504.055       -3387.043          41.500  
R17  19241501.700   102965189.629        1100.238          54.000    19241506.640    80084035.148         856.457          52.000  
R 3  23353809.840   125014793.211        3894.129          46.250    23353812.220    97233737.137        3028.785          44.000  
G 9                                                                                                                                
G27                                                                                                                                
G28                                                                                                                                
G14                                                                                                                                
G12                                                                                                                                
G 7                                                                                                                                
G26                                                                                                                                
> 2020  9 16 11 53 21.0000000  0 20       0.000000000000
G19                                                                                                                                
G 3  20414862.220   107280825.516         772.824          54.250    20414862.800    83595460.727         602.133          51.750  
G 4  22774562.960   119681138.797        3427.625          48.750    22774562.680    93258034.344        2671.922          47.250  
G11  21933907.620   115263466.836       -3350.234          49.750                                                                  
G22  20672835.160   108636482.387        -642.082          53.500                                                                  
G 1  20394461.920   107173615.574       -1268.332          54.500    20394463.940    83511934.836        -987.750          52.750  
G17  22619131.180   118864334.914        1848.594          49.000    22619130.240    92621569.773        1440.316          46.750  
R 1  20663577.640   110458696.125       -3002.625          49.500    20663584.180    85912321.613       -2337.438          44.750  
R18  22452695.920   119854058.328        3961.270          50.250    22452702.440    93219826.234        3081.359          50.000  
R24  20396902.280   109071446.711       -2978.023          54.500    20396906.720    84833342.883       -2315.895          52.500  
R23  23490883.480   125660424.762       -4354.715          44.500    23490892.200    97735888.898       -3386.055          41.500  
R17  19241295.380   102964087.363        1099.418          53.750    19241300.440    80083177.832         855.066          52.000  
R 3  23353081.380   125010896.770        3894.457          45.750    23353084.040    97230706.555        3027.133          44.250  
G 9                                                                                                                                
G27                                                                                                                                
G28                                                                                                                                
G14                                                                                                                                
G12                                                                                                                                
G 7                                                                                                                                
G26                                                                                                                                
> 2020  9 16 11 53 22.0000000  0 20       0.000000000000
G19                                                                                                                                
G 3  20414715.220   107280052.816         773.223          54.500    20414715.800    83594858.633         602.281          51.500  
G 4  22773911.000   119677711.332        3428.434          49.000    22773910.360    93255363.594        2670.938          47.000  
G11  21934545.220   115266817.523       -3349.215          50.000                                                                  
G22  20672957.220   108637124.102        -641.508          53.750                                                                  
G 1  20394703.300   107174884.148       -1268.746          54.750    20394705.560    83512923.336        -988.934          52.500  
G17  22618779.520   118862487.344        1848.098          49.250    22618778.480    92620130.102        1440.176          46.500  
R 1  20664139.400   110461700.125       -3002.445          49.500    20664146.060    85914658.051       -2337.898          44.750  
R18  22451953.740   119850096.930        3960.957          50.250    22451961.020    93216745.156        3080.832          50.000  
R24  20397459.120   109074424.863       -2978.461          54.500    20397463.740    84835659.223       -2316.023          52.500  
R23  23491697.040   125664779.172       -4355.828          44.250    23491706.880    97739275.641       -3384.012          41.750  
R17  19241089.760   102962988.141        1098.914          53.750    19241094.900    80082322.883         854.590          52.250  
R 3  23352352.880   125007002.820        3893.723          45.500    23352357.320    97227677.941        3027.785          44.000  
G 9                                                                                                                                
G27                                                                                                                                
G28                                                                                                                                
G14                                                                                                                                
G12                                                                                                                                
G 7                                                                                                                                
G26                                                                                                                                
> 2020  9 16 11 53 23.0000000  0 20       0.000000000000
G19                                                                                                                                
G 3  20414568.060   107279279.000         771.383          54.250    20414568.640    83594255.652         601.031          51.500  
G 4  22773258.700   119674282.590        3427.559          48.750    22773257.980    93252691.844        2669.906          47.250  
G11  21935182.540   115270167.012       -3352.621          49.750                                                                  
G22  20673079.020   108637764.621        -641.664          53.500                                                                  
G 1  20394944.500   107176151.656       -1269.793          54.500    20394946.800    83513911.004        -989.086          52.500  
G17  22618427.560   118860638.727        1846.203          48.750    22618426.440    92618689.621        1439.762          46.500  
R 1  20664701.520   110464702.926       -3004.797          49.500    20664707.720    85916993.570       -2336.855          44.750  
R18  22451211.560   119846134.223        3960.438          50.250    22451218.300    93213663.051        3080.699          50.250  
R24  20398015.720   109077402.059       -2979.062          54.250    20398020.280    84837974.816       -2316.762          52.500  
R23  23492511.140   125669132.156       -4354.762          44.250    23492521.160    97742661.285       -3384.359          41.750  
R17  19240883.880   102961888.125        1097.918          53.500    19240889.700    80081467.320         853.035          52.250  
R 3  23351623.940   125003107.508        3893.750          45.500    23351629.260    97224648.250        3029.789          44.000  
G 9                                                                                                                                
G27                                                                                                                                
G28                                                                                                                                
G14                                                                                                                                
G12                                                                                                                                
G 7                                                                                                                                
G26                                                                                                                                
> 2020  9 16 11 53 24.0000000  0 20       0.000000000000
G19                                                                                                                                
G 3  20414420.840   107278505.465         771.266          54.500    20414421.460    83593652.906         600.141          51.750  
G 4  22772606.140   119670854.004        3426.469          48.750    22772605.620    93250020.227        2670.719          47.500  
G11  21935820.080   115273516.738       -3352.621          49.750                                                                  
G22  20673200.960   108638405.375        -643.281          53.500                                                                  
G 1  20395185.780   107177419.520       -1269.965          54.500    20395188.060    83514898.945        -989.148          52.750  
G17  22618075.620   118858790.504        1844.184          48.750    22618074.540    92617249.457        1440.617          46.500  
R 1  20665263.460   110467705.969       -3004.938          49.500    20665269.260    85919329.246       -2337.406          44.750  
R18  22450469.660   119842171.625        3960.234          50.250    22450475.760    93210581.027        3081.176          50.000  
R24  20398572.900   109080379.730       -2980.008          54.500    20398577.420    84840290.781       -2317.809          52.500  
R23  23493325.160   125673485.180       -4354.934          44.250    23493334.500    97746046.949       -3385.973          42.000  
R17  19240678.380   102960788.816        1097.195          53.500    19240684.320    80080612.297         853.031          52.250  
R 3  23350895.400   124999212.289        3893.848          45.250    23350901.800    97221618.629        3027.691          44.000  
G 9                                                                                                                                
G27                                                                                                                                
G28                                                                                                                                
G14                                                                                                                                
G12                                                                                                                                
G 7                                                                                                                                
G26                                                                                                                                
> 2020  9 16 11 53 25.0000000  0 20       0.000000000000
G19                                                                                                                                
G 3  20414273.800   107277732.301         770.801          54.500    20414274.420    83593050.438         600.801          51.750  
G 4  22771953.760   119667425.645        3426.047          48.750    22771953.080    93247348.777        2669.910          47.250  
G11  21936457.520   115276866.770       -3350.352          49.750                                                                  
G22  20673322.940   108639046.426        -643.250          53.500                                                                  
G 1  20395427.340   107178687.797       -1269.984          54.750    20395429.440    83515887.215        -989.875          52.750  
G17  22617724.220   118856942.730        1845.797          49.000    22617722.840    92615809.613        1437.410          46.500  
R 1  20665825.200   110470709.312       -3006.066          49.750    20665831.720    85921665.188       -2337.703          44.750  
R18  22449727.300   119838209.195        3961.078          50.500    22449733.480    93207499.133        3080.348          50.250  
R24  20399129.600   109083357.938       -2980.668          54.250    20399134.420    84842607.160       -2317.961          52.500  
R23  23494139.280   125677838.297       -4354.484          44.500    23494147.800    97749432.715       -3386.586          42.000  
R17  19240473.180   102959690.234        1096.445          53.500    19240479.020    80079757.840         852.605          52.250  
R 3  23350167.360   124995317.242        3891.680          45.250    23350174.660    97218589.160        3028.262          44.500  
G 9                                                                                                                                
G27                                                                                                                                
G28                                                                                                                                
G14                                                                                                                                
G12                                                                                                                                
G 7                                                                                                                                
G26                                                                                                                                
> 2020  9 16 11 53 26.0000000  0 20       0.000000000000
G19                                                                                                                                
G 3  20414126.680   107276958.879         770.414          54.750    20414127.200    83592447.773         599.758          51.750  
G 4  22771301.320   119663996.863        3427.105          48.750    22771300.720    93244677.008        2667.867          47.500  
G11  21937095.000   115280216.488       -3352.352          50.000                                                                  
G22  20673444.780   108639687.160        -644.277          53.500                                                                  
G 1  20395668.800   107179955.867       -1269.855          55.000    20395670.700    83516875.320        -989.844          52.750  
G17  22617372.600   118855094.801        1845.465          49.250    22617370.840    92614369.676        1438.043          46.750  
R 1  20666387.060   110473712.324       -3005.738          49.500    20666392.220    85924000.871       -2337.816          44.750  
R18  22448985.240   119834246.309        3960.672          50.500    22448991.000    93204416.883        3081.156          50.500  
R24  20399686.360   109086336.004       -2980.887          54.000    20399691.520    84844923.430       -2318.906          52.500  
R23  23494952.820   125682190.914       -4354.355          44.750    23494962.660    97752818.074       -3387.020          42.250  
R17  19240267.600   102958591.719        1095.461          53.500    19240273.920    80078903.438         852.012          52.250  
R 3  23349439.340   124991421.691        3892.121          45.250    23349447.380    97215559.258        3026.617          44.500  
G 9                                                                                                                                
G27                                                                                                                                
G28                                                                                                                                
G14                                                                                                                                
G12                                                                                                                                
G 7                                                                                                                                
G26                                                                                                                                
> 2020  9 16 11 53 27.0000000  0 20       0.000000000000
G19                                                                                                                                
G 3  20413979.680   107276186.316         770.672          55.250    20413980.200    83591845.770         600.156          52.000  
G 4  22770648.960   119660568.809        3425.000          49.250    22770648.140    93242005.801        2670.086          47.250  
G11  21937732.520   115283567.016       -3352.227          50.250                                                                  
G22  20673566.800   108640328.691        -643.723          54.000                                                                  
G 1  20395910.220   107181224.875       -1271.566          55.500    20395912.080    83517864.160        -990.648          52.750  
G17  22617021.020   118853247.820        1844.074          49.500    22617019.540    92612930.473        1438.477          46.500  
R 1  20666949.100   110476716.172       -3005.668          49.750    20666954.120    85926337.180       -2337.949          45.000  
R18  22448243.080   119830284.105        3960.824          50.750    22448248.900    93201335.164        3080.289          50.500  
R24  20400243.320   109089315.105       -2981.652          54.000    20400248.660    84847240.512       -2318.023          52.750  
R23  23495767.360   125686544.141       -4355.785          44.750    23495776.520    97756203.922       -3387.160          42.500  
R17  19240062.820   102957494.406        1094.762          53.500    19240068.940    80078049.965         851.293          52.500  
R 3  23348711.680   124987526.801        3893.719          45.500    23348719.820    97212529.898        3028.520          45.000  
G 9                                                                                                                                
G27                                                                                                                                
G28                                                                                                                                
G14                                                                                                                                
G12                                                                                                                                
G 7                                                                                                                                
G26                                                                                                                                
> 2020  9 16 11 53 28.0000000  0 20       0.000000000000
G19                                                                                                                                
G 3  20413832.600   107275413.770         769.434          55.500    20413833.260    83591243.789         599.266          51.750  
G 4  22769996.500   119657140.633        3425.160          49.500    22769995.840    93239334.477        2668.887          47.250  
G11  21938369.900   115286917.496       -3352.109          50.500                                                                  
G22  20673688.760   108640970.176        -644.109          54.000                                                                  
G 1  20396151.820   107182493.957       -1272.180          55.750    20396153.560    83518853.055        -990.703          52.500  
G17  22616669.560   118851400.953        1843.641          49.750    22616668.020    92611491.359        1438.168          46.250  
R 1  20667511.080   110479719.965       -3005.676          50.000    20667516.020    85928673.457       -2338.188          45.000  
R18  22447500.940   119826321.688        3959.062          50.750    22447506.720    93198253.289        3079.691          50.250  
R24  20400800.680   109092294.426       -2982.367          54.250    20400806.080    84849557.742       -2319.363          52.750  
R23  23496581.340   125690897.152       -4355.609          45.000    23496590.700    97759589.574       -3388.547          42.750  
R17  19239857.580   102956397.449        1094.277          53.500    19239863.500    80077196.770         851.453          52.250  
R 3  23347984.200   124983631.703        3892.273          45.750    23347992.380    97209500.383        3026.883          45.000  
G 9                                                                                                                                
G27                                                                                                                                
G28                                                                                                                                
G14                                                                                                                                
G12                                                                                                                                
G 7                                                                                                                                
G26                                                                                                                                
> 2020  9 16 11 53 29.0000000  0 20       0.000000000000
G19                                                                                                                                
G 3  20413685.700   107274641.582         769.945          55.500    20413686.400    83590642.082         600.051          52.000  
G 4  22769344.340   119653712.648        3425.793          49.500    22769343.400    93236663.340        2667.992          47.250  
G11  21939007.520   115290268.273       -3355.305          50.500                                                                  
G22  20673810.760   108641611.957        -644.539          54.000                                                                  
G 1  20396393.500   107183763.445       -1271.836          55.750    20396395.060    83519842.262        -991.648          52.500  
G17  22616318.320   118849554.535        1843.168          49.750    22616316.660    92610052.582        1435.117          46.500  
R 1  20668073.100   110482724.055       -3007.094          50.000    20668078.460    85931009.988       -2337.828          44.750  
R18  22446758.600   119822359.414        3959.270          50.750    22446764.220    93195171.531        3079.707          50.500  
R24  20401358.060   109095274.277       -2982.504          54.250    20401363.400    84851875.406       -2320.531          52.750  
R23  23497394.540   125695250.262       -4356.828          45.000    23497404.940    97762975.336       -3388.199          43.000  
R17  19239653.120   102955301.219        1093.086          53.500    19239658.780    80076344.145         850.570          52.250  
R 3  23347257.220   124979736.789        3893.113          46.000    23347264.880    97206470.977        3027.035          45.500  
G 9                                                                                                                                
G27                                                                                                                                
G28                                                                                                                                
G14                                                                                                                                
G12                                                                                                                                
G 7                                                                                                                                
G26                                                                                                                                
> 2020  9 16 11 53 30.0000000  0 20       0.000000000000
G19                                                                                                                                
G 3  20413539.060   107273869.992         768.805          55.250    20413539.660    83590040.844         598.633          52.000  
G 4  22768692.220   119650285.117        3425.621          49.500    22768691.180    93233992.539        2669.195          47.250  
G11  21939645.080   115293619.590       -3353.551          50.000                                                                  
G22  20673933.140   108642254.266        -644.770          53.500                                                                  
G 1  20396635.300   107185033.590       -1273.148          55.500    20396636.540    83520831.984        -992.523          52.500  
G17  22615967.180   118847708.812        1843.387          49.500    22615965.540    92608614.352        1436.238          46.250  
R 1  20668635.900   110485728.676       -3007.629          49.750    20668640.980    85933346.906       -2340.320          44.500  
R18  22446016.760   119818397.535        3959.129          50.250    22446022.260    93192090.059        3079.062          50.000  
R24  20401915.540   109098254.895       -2982.664          53.750    20401920.880    84854193.664       -2320.613          52.750  
R23  23498208.880   125699603.695       -4355.359          44.500    23498219.020    97766361.344       -3386.766          42.500  
R17  19239448.680   102954205.977        1092.812          53.250    19239453.960    80075492.285         850.000          52.250  
R 3  23346530.720   124975842.250        3892.156          45.750    23346537.840    97203441.891        3026.895          45.500  
G 9                                                                                                                                
G27                                                                                                                                
G28                                                                                                                                
G14                                                                                                                                
G12                                                                                                                                
G 7                                                                                                                                
G26                                                                                                                                
> 2020  9 16 11 53 31.0000000  0 20       0.000000000000
G19                                                                                                                                
G 3  20413392.160   107273098.027         768.645          54.750    20413392.700    83589439.316         599.555          52.000  
G 4  22768040.080   119646857.082        3425.715          49.000    22768038.980    93231321.352        2668.992          47.500  
G11  21940282.760   115296970.477       -3352.828          49.500                                                                  
G22  20674055.140   108642896.141        -644.512          53.000                                                                  
G 1  20396876.980   107186303.430       -1273.129          55.000    20396878.020    83521821.484        -991.949          52.500  
G17  22615615.840   118845862.812        1842.652          49.000    22615614.460    92607175.914        1436.773          46.500  
R 1  20669198.080   110488732.863       -3006.918          49.750    20669203.200    85935683.496       -2338.969          44.500  
R18  22445274.200   119814435.102        3958.582          50.250    22445279.980    93189008.180        3078.422          50.000  
R24  20402472.740   109101235.293       -2984.125          53.500    20402478.340    84856511.754       -2321.184          52.750  
R23  23499022.200   125703956.488       -4356.387          44.750    23499032.920    97769746.832       -3386.406          42.750  
R17  19239244.020   102953110.695        1092.617          53.250    19239249.260    80074640.406         848.980          52.250  
R 3  23345803.120   124971947.125        3891.977          45.750    23345811.200    97200412.344        3027.234          45.500  
G 9                                                                                                                                
G27                                                                                                                                
G28                                                                                                                                
G14                                                                                                                                
G12                                                                                                                                
G 7                                                                                                                                
G26                                                                                                                                
> 2020  9 16 11 53 32.0000000  0 20       0.000000000000
G19                                                                                                                                
G 3  20413245.620   107272327.410         768.320          54.500    20413246.080    83588838.828         598.984          52.000  
G 4  22767388.180   119643430.246        3424.191          49.000    22767386.960    93228651.086        2668.262          47.250  
G11  21940920.460   115300322.664       -3354.414          49.250                                                                  
G22  20674177.440   108643539.301        -645.570          52.500                                                                  
G 1  20397118.760   107187574.656       -1273.766          54.500    20397119.840    83522812.043        -991.797          52.250  
G17  22615264.660   118844018.238        1841.527          48.750    22615263.340    92605738.590        1435.094          46.250  
R 1  20669760.200   110491738.344       -3007.039          49.750    20669765.360    85938021.102       -2338.984          44.500  
R18  22444532.620   119810473.836        3958.941          50.500    22444537.600    93185927.191        3079.648          50.000  
R24  20403030.080   109104217.203       -2984.594          53.750    20403035.820    84858831.016       -2320.922          52.750  
R23  23499835.820   125708310.367       -4356.449          45.250    23499846.740    97773133.180       -3388.246          42.750  
R17  19239039.840   102952017.121        1090.984          53.500    19239045.120    80073789.848         848.480          52.250  
R 3  23345075.840   124968053.133        3891.512          46.000    23345084.100    97197383.680        3026.723          45.750  
G 9                                                                                                                                
G27                                                                                                                                
G28                                                                                                                                
G14                                                                                                                                
G12                                                                                                                                
G 7                                                                                                                                
G26                                                                                                                                
> 2020  9 16 11 53 33.0000000  0 20       0.000000000000
G19                                                                                                                                
G 3  20413099.520   107271559.469         767.508          54.500    20413099.920    83588240.422         598.387          51.750  
G 4  22766736.600   119640005.926        3423.832          49.000    22766735.340    93225982.797        2668.570          47.250  
G11  21941558.900   115303677.441       -3355.141          49.250                                                                  
G22  20674300.240   108644185.094        -645.660          52.750                                                                  
G 1  20397361.280   107188848.637       -1274.145          54.750    20397362.100    83523804.750        -993.555          52.250  
G17  22614914.300   118842176.434        1844.066          48.750    22614912.860    92604303.410        1435.133          46.250  
R 1  20670323.140   110494746.496       -3008.453          50.000    20670328.060    85940360.773       -2339.156          44.500  
R18  22443791.100   119806515.098        3958.684          50.500    22443795.940    93182848.176        3079.961          50.000  
R24  20403588.140   109107202.027       -2984.859          53.500    20403594.140    84861152.543       -2321.969          52.750  
R23  23500650.960   125712666.711       -4356.816          45.250    23500662.000    97776521.465       -3387.430          42.750  
R17  19238835.980   102950926.641        1089.957          53.500    19238841.220    80072941.695         848.070          52.500  
R 3  23344349.340   124964161.660        3892.395          46.250    23344356.920    97194356.969        3027.656          46.250  
G 9                                                                                                                                
G27                                                                                                                                
G28                                                                                                                                
G14                                                                                                                                
G12                                                                                                                                
G 7                                                                                                                                
G26                                                                                                                                
> 2020  9 16 11 53 34.0000000  0 20       0.000000000000
G19                                                                                                                                
G 3  20412953.100   107270789.348         767.176          55.000    20412953.480    83587640.336         597.492          51.750  
G 4  22766084.760   119636579.293        3423.012          49.500    22766083.140    93223312.691        2666.430          47.250  
G11  21942196.900   115307029.992       -3356.230          49.750                                                                  
G22  20674422.580   108644828.629        -647.086          53.000                                                                  
G 1  20397603.180   107190120.480       -1275.137          55.000    20397603.960    83524795.801        -993.766          52.000  
G17  22614563.520   118840332.547        1840.695          49.000    22614561.800    92602866.621        1433.461          46.250  
R 1  20670885.440   110497752.355       -3008.238          50.000    20670890.160    85942698.676       -2338.809          44.750  
R18  22443049.300   119802553.953        3958.527          50.750    22443053.500    93179767.297        3078.766          50.000  
R24  20404145.720   109110184.805       -2985.434          53.750    20404151.980    84863472.484       -2322.250          53.000  
R23  23501464.920   125717020.594       -4356.070          45.500    23501474.780    97779907.816       -3389.711          43.000  
R17  19238632.240   102949834.270        1089.180          53.500    19238637.420    80072092.074         847.090          52.750  
R 3  23343621.820   124960267.723        3891.199          46.250    23343629.860    97191328.359        3026.324          46.500  
G 9                                                                                                                                
G27                                                                                                                                
G28                                                                                                                                
G14                                                                                                                                
G12                                                                                                                                
G 7                                                                                                                                
G26                                                                                                                                
> 2020  9 16 11 53 35.0000000  0 20       0.000000000000
G19                                                                                                                                
G 3  20412806.600   107270019.723         767.102          55.000    20412806.980    83587040.633         596.992          51.750  
G 4  22765432.800   119633153.020        3422.738          50.000    22765431.140    93220642.867        2669.387          47.250  
G11  21942835.000   115310382.980       -3356.949          49.750                                                                  
G22  20674545.240   108645472.617        -645.891          53.250                                                                  
G 1  20397845.240   107191392.891       -1275.035          55.000    20397845.940    83525787.289        -993.891          52.000  
G17  22614212.660   118838489.258        1839.754          49.250    22614211.060    92601430.289        1433.738          46.250  
R 1  20671447.800   110500758.688       -3008.113          50.000    20671452.580    85945036.934       -2340.375          45.000  
R18  22442307.420   119798593.125        3958.734          51.000    22442311.900    93176686.645        3077.223          50.000  
R24  20404703.700   109113168.273       -2985.918          53.750    20404710.140    84865792.965       -2322.004          53.250  
R23  23502278.340   125721374.738       -4357.246          45.500    23502289.660    97783294.375       -3388.070          43.000  
R17  19238428.140   102948742.746        1088.820          53.750    19238433.960    80071243.113         846.863          53.000  
R 3  23342895.200   124956374.117        3890.039          46.750    23342902.760    97188299.996        3025.422          46.750  
G 9                                                                                                                                
G27                                                                                                                                
G28                                                                                                                                
G14                                                                                                                                
G12                                                                                                                                
G 7                                                                                                                                
G26                                                                                                                                
> 2020  9 16 11 53 36.0000000  0 19       0.000000000000
G19                                                                                                                                
G 3  20412660.320   107269250.355         766.598          55.250    20412660.640    83586441.121         597.824          51.500  
G 4  22764781.140   119629726.867        3423.430          50.000    22764779.200    93217973.137        2666.656          47.000  
G11  21943473.040   115313736.164       -3355.621          49.750                                                                  
G22  20674667.960   108646116.801        -647.668          53.500                                                                  
G 1  20398087.360   107192665.621       -1276.223          55.250    20398088.020    83526779.031        -994.379          51.750  
G17  22613862.120   118836646.324        1838.918          49.500    22613860.580    92599994.234        1434.414          46.000  
R 1  20672010.320   110503765.227       -3009.199          49.750    20672015.020    85947375.348       -2343.902          44.500  
R18  22441565.360   119794632.332        3957.469          50.750    22441569.680    93173606.043        3078.691          50.000  
R24  20405261.500   109116152.195       -2987.547          53.500    20405268.640    84868113.793       -2323.520          53.250  
R17  19238224.460   102947651.867        1086.973          53.500    19238229.920    80070394.648         845.844          52.750  
R 3  23342168.020   124952480.566        3890.691          46.750    23342175.900    97185271.672        3026.641          46.500  
G 9                                                                                                                                
G27                                                                                                                                
G28                                                                                                                                
G14                                                                                                                                
G12                                                                                                                                
G 7                                                                                                                                
G26                                                                                                                                
> 2020  9 16 11 53 37.0000000  0 19       0.000000000000
G19                                                                                                                                
G 3  20412514.240   107268481.781         765.203          55.250    20412514.420    83585842.230         596.355          51.500  
G 4  22764129.520   119626301.348        3422.688          50.250    22764127.600    93215303.891        2665.805          47.000  
G11  21944111.360   115317090.070       -3356.500          49.750                                                                  
G22  20674790.640   108646761.695        -647.137          53.500                                                                  
G 1  20398329.580   107193939.191       -1276.234          55.000    20398330.380    83527771.426        -995.172          51.750  
G17  22613511.740   118834804.266        1838.219          49.750    22613510.040    92598558.875        1433.965          46.000  
R 1  20672572.800   110506772.492       -3009.859          49.750    20672578.320    85949714.352       -2340.199          44.500  
R18  22440823.180   119790672.137        3957.371          50.750    22440827.740    93170525.898        3078.379          50.000  
R24  20405819.340   109119137.043       -2988.156          53.500    20405827.020    84870435.340       -2324.242          53.250  
R17  19238020.820   102946562.148        1086.477          53.500    19238026.800    80069547.098         845.652          52.750  
R 3  23341441.680   124948587.574        3889.926          47.000    23341448.500    97182243.797        3025.762          46.500  
G 9                                                                                                                                
G27                                                                                                                                
G28                                                                                                                                
G14                                                                                                                                
G12                                                                                                                                
G 7                                                                                                                                
G26                                                                                                                                
> 2020  9 16 11 53 38.0000000  0 19       0.000000000000
G19                                                                                                                                
G 3  20412367.900   107267713.145         765.562          55.250    20412368.020    83585243.301         596.359          51.500  
G 4  22763477.800   119622875.629        3421.984          50.500    22763475.760    93212634.508        2667.023          47.000  
G11  21944749.560   115320443.863       -3357.141          50.000                                                                  
G22  20674913.460   108647406.473        -647.934          53.500                                                                  
G 1  20398571.800   107195212.773       -1277.074          55.000    20398572.740    83528763.828        -993.777          51.500  
G17  22613161.320   118832962.246        1838.969          49.750    22613159.440    92597123.531        1433.609          46.250  
R 1  20673135.160   110509779.652       -3010.863          49.750    20673139.760    85952053.234       -2341.684          44.500  
R18  22440082.000   119786711.684        3958.000          51.000    22440085.560    93167445.543        3076.645          49.750  
R24  20406377.680   109122121.984       -2988.344          53.500    20406385.300    84872756.965       -2324.363          53.250  
R17  19237817.240   102945472.707        1086.480          53.750    19237823.240    80068699.750         844.914          52.750  
R 3  23340713.800   124944694.316        3891.801          47.000    23340720.880    97179215.691        3026.805          46.250  
G 9                                                                                                                                
G27                                                                                                                                
G28                                                                                                                                
G14                                                                                                                                
G12                                                                                                                                
G 7                                                                                                                                
G26                                                                                                                                
> 2020  9 16 11 53 39.0000000  0 19       0.000000000000
G19                                                                                                                                
G 3  20412221.620   107266944.570         765.211          55.500    20412221.680    83584644.402         596.141          51.500  
G 4  22762826.080   119619449.824        3422.965          50.750    22762824.020    93209965.051        2666.676          47.250  
G11  21945387.940   115323797.660       -3356.375          50.250                                                                  
G22  20675036.180   108648051.246        -647.520          53.750                                                                  
G 1  20398813.980   107196486.473       -1278.082          55.250    20398815.000    83529756.312        -994.754          51.500  
G17  22612811.040   118831120.371        1838.195          50.000    22612808.920    92595688.305        1432.453          46.000  
R 1  20673697.840   110512786.805       -3011.980          50.000    20673702.780    85954392.133       -2340.695          44.250  
R18  22439340.140   119782751.117        3957.125          51.250    22439343.720    93164365.102        3078.738          49.750  
R24  20406936.080   109125107.148       -2988.910          53.750    20406943.340    84875078.762       -2324.605          53.000  
R17  19237613.520   102944383.672        1085.227          53.750    19237619.780    80067852.723         843.449          52.750  
R 3  23339986.660   124940800.918        3889.363          47.250    23339993.520    97176187.500        3025.766          46.500  
G 9                                                                                                                                
G27                                                                                                                                
G28                                                                                                                                
G14                                                                                                                                
G12                                                                                                                                
G 7                                                                                                                                
G26                                                                                                                                
> 2020  9 16 11 53 40.0000000  0 19       0.000000000000
G19                                                                                                                                
G 3  20412075.380   107266176.660         764.734          55.250    20412075.520    83584046.035         595.961          51.500  
G 4  22762174.480   119616024.543        3421.637          50.500    22762172.240    93207295.996        2665.855          47.250  
G11  21946026.300   115327152.035       -3357.688          50.250                                                                  
G22  20675159.100   108648696.598        -647.918          53.750                                                                  
G 1  20399056.340   107197760.891       -1277.574          55.000    20399057.580    83530749.359        -995.992          51.750  
G17  22612460.820   118829279.254        1839.066          50.000    22612458.860    92594253.664        1430.305          46.250  
R 1  20674260.700   110515794.551       -3010.844          50.000    20674265.240    85956731.504       -2344.633          44.250  
R18  22438598.480   119778791.020        3956.637          51.500    22438601.800    93161285.020        3077.520          49.750  
R24  20407494.480   109128093.141       -2988.500          53.750    20407501.500    84877401.184       -2325.602          53.000  
R17  19237410.300   102943295.668        1084.344          53.750    19237416.300    80067006.500         843.227          52.750  
R 3  23339259.260   124936907.988        3890.145          47.250    23339266.380    97173159.680        3026.242          46.750  
G 9                                                                                                                                
G27                                                                                                                                
G28                                                                                                                                
G14                                                                                                                                
G12                                                                                                                                
G 7                                                                                                                                
G26                                                                                                                                
> 2020  9 16 11 53 41.0000000  0 19       0.000000000000
G19                                                                                                                                
G 3  20411929.140   107265408.688         764.703          55.250    20411929.220    83583447.609         596.105          51.500  
G 4  22761522.540   119612599.051        3422.148          50.500    22761520.240    93204626.785        2665.102          47.500  
G11  21946664.700   115330506.312       -3357.102          50.500                                                                  
G22  20675281.980   108649341.840        -649.293          53.750                                                                  
G 1  20399298.840   107199035.305       -1278.008          54.750    20399300.080    83531742.414        -995.242          51.750  
G17  22612110.660   118827438.168        1837.055          50.000    22612108.480    92592819.059        1432.223          46.250  
R 1  20674822.920   110518802.184       -3011.637          50.000    20674828.160    85959070.770       -2341.855          44.500  
R18  22437856.780   119774830.680        3957.648          51.500    22437860.080    93158204.766        3076.469          50.000  
R24  20408052.980   109131079.254       -2990.555          53.750    20408059.820    84879723.723       -2325.578          53.000  
R17  19237207.280   102942207.961        1083.664          53.750    19237213.280    80066160.504         843.234          53.000  
R 3  23338531.600   124933014.797        3889.059          47.250    23338538.700    97170131.625        3026.184          47.000  
G 9                                                                                                                                
G27                                                                                                                                
G28                                                                                                                                
G14                                                                                                                                
G12                                                                                                                                
G 7                                                                                                                                
G26                                                                                                                                
> 2020  9 16 11 53 42.0000000  0 19       0.000000000000
G19                                                                                                                                
G 3  20411783.140   107264641.031         763.816          55.000    20411783.200    83582849.441         595.910          51.250  
G 4  22760870.740   119609173.734        3421.641          50.250    22760868.660    93201957.703        2665.969          47.250  
G11  21947303.080   115333860.828       -3358.086          50.500                                                                  
G22  20675404.960   108649987.324        -649.508          53.750                                                                  
G 1  20399541.340   107200310.105       -1278.891          54.750    20399542.840    83532735.766        -996.305          51.750  
G17  22611760.240   118825597.516        1837.176          50.000    22611758.340    92591384.777        1430.414          46.250  
R 1  20675385.440   110521810.062       -3011.523          49.750    20675391.080    85961410.219       -2345.883          44.250  
R18  22437115.160   119770870.465        3955.809          51.250    22437118.220    93155124.590        3076.770          49.750  
R24  20408611.320   109134065.875       -2990.691          53.500    20408618.080    84882046.645       -2326.289          53.000  
R17  19237004.160   102941120.918        1083.184          53.750    19237010.280    80065315.023         841.742          52.750  
R 3  23337804.040   124929121.695        3889.480          47.000    23337811.520    97167103.668        3024.773          47.000  
G 9                                                                                                                                
G27                                                                                                                                
G28                                                                                                                                
G14                                                                                                                                
G12                                                                                                                                
G 7                                                                                                                                
G26                                                                                                                                
> 2020  9 16 11 53 43.0000000  0 19       0.000000000000
G19                                                                                                                                
G 3  20411637.060   107263873.859         763.898          55.000    20411637.240    83582251.641         596.000          51.500  
G 4  22760218.840   119605748.754        3421.152          50.250    22760216.920    93199288.883        2666.887          47.500  
G11  21947941.420   115337215.770       -3359.863          50.500                                                                  
G22  20675528.060   108650633.215        -649.102          54.000                                                                  
G 1  20399784.060   107201585.430       -1278.699          55.000    20399785.580    83533729.523        -995.902          51.750  
G17  22611410.140   118823757.410        1837.402          50.250    22611408.360    92589950.938        1432.156          46.500  
R 1  20675948.140   110524818.367       -3012.430          49.750    20675953.100    85963750.035       -2345.211          44.250  
R18  22436372.800   119766910.492        3956.504          51.250    22436376.000    93152044.613        3077.730          49.500  
R24  20409170.120   109137053.148       -2991.402          53.750    20409176.960    84884370.086       -2326.391          53.000  
R17  19236800.980   102940034.691        1082.086          53.750    19236807.160    80064470.180         841.996          52.750  
R 3  23337077.120   124925228.859        3889.340          47.250    23337083.580    97164075.910        3024.875          46.750  
G 9                                                                                                                                
G27                                                                                                                                
G28                                                                                                                                
G14                                                                                                                                
G12                                                                                                                                
G 7                                                                                                                                
G26                                                                                                                                
> 2020  9 16 11 53 44.0000000  0 19       0.000000000000
G19                                                                                                                                
G 3  20411491.740   107263110.469         763.770          55.250    20411492.040    83581656.793         594.910          51.500  
G 4  22759567.760   119602327.418        3420.902          50.750    22759565.680    93196622.926        2665.613          47.500  
G11  21948580.380   115340574.449       -3358.336          50.500                                                                  
G22  20675651.700   108651282.832        -649.520          54.250                                                                  
G 1  20400027.580   107202864.605       -1279.219          55.250    20400028.860    83534726.289        -996.285          51.750  
G17  22611060.660   118821921.207        1836.934          50.500    22611058.960    92588520.133        1430.938          46.500  
R 1  20676512.020   110527830.477       -3011.832          50.000    20676516.420    85966092.785       -2342.426          44.000  
R18  22435631.480   119762954.184        3956.312          51.250    22435634.740    93148967.492        3076.762          49.250  
R24  20409729.520   109140044.445       -2990.375          54.000    20409736.620    84886696.652       -2326.785          52.750  
R17  19236598.640   102938952.691        1082.402          54.000    19236604.520    80063628.625         841.160          52.500  
R 3  23336350.240   124921339.676        3888.680          47.500    23336356.380    97161050.984        3024.605          46.000  
G 9                                                                                                                                
G27                                                                                                                                
G28                                                                                                                                
G14                                                                                                                                
G12                                                                                                                                
G 7                                                                                                                                
G26                                                                                                                                
> 2020  9 16 11 53 45.0000000  0 19       0.000000000000
G19                                                                                                                                
G 3  20411345.760   107262343.992         762.645          55.250    20411346.260    83581059.543         594.180          51.750  
G 4  22758915.960   119598902.859        3420.371          50.750    22758914.120    93193954.418        2667.609          47.750  
G11  21949218.900   115343929.984       -3358.863          50.500                                                                  
G22  20675774.740   108651929.309        -649.520          54.250                                                                  
G 1  20400270.580   107204140.766       -1279.008          55.500    20400271.820    83535720.691        -997.523          52.000  
G17  22610710.620   118820082.012        1835.656          50.500    22610709.020    92587086.980        1430.734          46.750  
R 1  20677074.560   110530839.391       -3011.641          50.000    20677078.700    85968433.051       -2342.602          44.000  
R18  22434889.460   119758994.551        3955.609          51.250    22434892.300    93145887.773        3076.082          49.250  
R24  20410288.240   109143032.742       -2991.785          53.750    20410295.220    84889020.887       -2326.703          52.750  
R17  19236396.120   102937867.914        1080.902          54.000    19236401.920    80062784.906         841.438          52.750  
R 3  23335622.960   124917447.125        3888.160          47.500    23335628.840    97158023.461        3024.129          46.000  
G 9                                                                                                                                
G27                                                                                                                                
G28                                                                                                                                
G14                                                                                                                                
G12                                                                                                                                
G 7                                                                                                                                
G26                                                                                                                                
> 2020  9 16 11 53 46.0000000  0 19       0.000000000000
G19                                                                                                                                
G 3  20411199.980   107261578.168         762.859          55.250    20411200.700    83580462.797         594.270          51.750  
G 4  22758264.340   119595478.801        3419.836          50.750    22758262.760    93191286.328        2665.715          47.750  
G11  21949857.420   115347286.102       -3359.512          50.750                                                                  
G22  20675897.880   108652576.355        -650.469          54.500                                                                  
G 1  20400513.660   107205417.621       -1280.285          55.500    20400514.900    83536715.648        -997.191          52.000  
G17  22610360.520   118818243.551        1836.590          50.500    22610359.180    92585654.438        1430.711          46.500  
R 1  20677637.760   110533848.906       -3012.262          49.750    20677642.420    85970773.777       -2345.062          44.000  
R18  22434147.480   119755035.391        3956.480          51.000    22434150.400    93142808.430        3076.992          49.250  
R24  20410846.760   109146021.859       -2992.297          53.500    20410854.420    84891345.758       -2328.039          52.750  
R17  19236193.380   102936784.129        1080.508          53.750    19236199.900    80061941.965         840.363          52.750  
R 3  23334895.760   124913555.043        3889.402          47.500    23334900.780    97154996.285        3024.156          45.750  
G 9                                                                                                                                
G27                                                                                                                                
G28                                                                                                                                
G14                                                                                                                                
G12                                                                                                                                
G 7                                                                                                                                
G26                                                                                                                                
> 2020  9 16 11 53 47.0000000  0 19       0.000000000000
G19                                                                                                                                
G 3  20411054.240   107260812.590         762.301          55.250    20411055.160    83579866.242         592.723          51.750  
G 4  22757612.760   119592054.840        3421.047          50.750    22757611.340    93188618.316        2663.348          47.750  
G11  21950496.140   115350642.398       -3359.941          50.750                                                                  
G22  20676021.120   108653223.582        -650.512          54.500                                                                  
G 1  20400756.780   107206694.781       -1280.438          55.500    20400758.120    83537710.844        -997.945          52.000  
G17  22610010.840   118816405.430        1834.465          50.500    22610009.620    92584222.141        1429.094          46.750  
R 1  20678201.000   110536858.617       -3012.758          49.750    20678205.840    85973114.660       -2343.758          44.250  
R18  22433405.660   119751076.293        3956.617          50.750    22433409.100    93139729.145        3076.730          49.500  
R24  20411405.560   109149011.430       -2993.711          53.250    20411413.600    84893670.977       -2328.270          52.750  
R17  19235990.860   102935700.918        1079.133          53.750    19235997.520    80061099.465         839.465          53.000  
R 3  23334169.140   124909662.996        3889.266          47.500    23334173.120    97151969.145        3026.488          45.750  
G 9                                                                                                                                
G27                                                                                                                                
G28                                                                                                                                
G14                                                                                                                                
G12                                                                                                                                
G 7                                                                                                                                
G26                                                                                                                                
> 2020  9 16 11 53 48.0000000  0 19       0.000000000000
G19                                                                                                                                
G 3  20410908.600   107260047.715         761.445          55.000    20410909.700    83579270.238         593.996          51.750  
G 4  22756961.360   119588631.449        3420.160          50.500    22756960.220    93185950.746        2665.746          47.750  
G11  21951134.820   115353999.348       -3360.543          50.500                                                                  
G22  20676144.440   108653871.449        -650.793          54.500                                                                  
G 1  20401000.120   107207972.719       -1281.332          55.500    20401001.420    83538706.633        -997.328          52.000  
G17  22609661.300   118814568.129        1833.895          50.500    22609659.720    92582790.477        1429.168          46.500  
R 1  20678763.920   110539868.988       -3012.797          49.750    20678769.360    85975456.059       -2343.539          44.250  
R18  22432663.660   119747117.730        3955.812          51.000    22432667.980    93136650.262        3077.207          49.500  
R24  20411964.820   109152001.898       -2993.898          53.250    20411972.660    84895996.895       -2329.141          53.000  
R17  19235788.940   102934618.824        1079.004          53.750    19235795.560    80060257.836         839.105          53.250  
R 3  23333442.080   124905771.480        3887.504          47.500    23333445.460    97148942.391        3025.359          46.000  
G 9                                                                                                                                
G27                                                                                                                                
G28                                                                                                                                
G14                                                                                                                                
G12                                                                                                                                
G 7                                                                                                                                
G26                                                                                                                                
> 2020  9 16 11 53 49.0000000  0 19       0.000000000000
G19                                                                                                                                
G 3  20410762.940   107259282.570         761.137          55.000    20410764.160    83578674.023         593.125          51.750  
G 4  22756309.740   119585207.645        3420.059          50.500    22756308.520    93183282.840        2665.512          47.750  
G11  21951773.340   115357355.957       -3359.461          50.500                                                                  
G22  20676267.840   108654518.984        -650.828          54.750                                                                  
G 1  20401243.260   107209250.434       -1281.383          55.500    20401244.680    83539702.254        -998.957          52.000  
G17  22609311.780   118812730.633        1832.945          50.500    22609310.160    92581358.672        1429.039          46.750  
R 1  20679326.900   110542878.992       -3014.066          49.750    20679332.500    85977797.184       -2343.781          44.500  
R18  22431922.200   119743158.684        3955.016          51.000    22431926.460    93133571.012        3076.336          49.750  
R24  20412524.020   109154992.230       -2995.207          53.500    20412531.540    84898322.703       -2328.629          53.000  
R17  19235586.560   102933536.816        1078.180          53.750    19235593.200    80059416.281         839.043          53.250  
R 3  23332714.580   124901879.465        3888.094          47.500    23332718.440    97145915.277        3024.996          45.750  
G 9                                                                                                                                
G27                                                                                                                                
G28                                                                                                                                
G14                                                                                                                                
G12                                                                                                                                
G 7                                                                                                                                
G26                                                                                                                                
> 2020  9 16 11 53 50.0000000  0 19       0.000000000000
G19                                                                                                                                
G 3  20410617.340   107258518.477         760.051          54.750    20410618.860    83578078.621         593.637          51.750  
G 4  22755658.320   119581784.730        3420.078          50.000    22755657.400    93180615.629        2665.566          47.750  
G11  21952412.280   115360713.551       -3360.297          50.000                                                                  
G22  20676391.260   108655167.500        -652.137          54.250                                                                  
G 1  20401486.700   107210529.254       -1282.391          55.250    20401488.120    83540698.738        -999.020          52.000  
G17  22608962.240   118810894.285        1833.121          50.250    22608960.600    92579927.742        1428.250          46.500  
R 1  20679890.400   110545889.996       -3014.699          49.750    20679896.120    85980139.066       -2343.012          44.500  
R18  22431180.200   119739200.496        3954.773          50.750    22431185.200    93130492.418        3076.078          50.000  
R24  20413083.980   109157983.750       -2994.418          53.500    20413091.200    84900649.445       -2330.102          53.000  
R17  19235384.800   102932456.203        1077.270          53.750    19235391.140    80058575.801         837.863          53.500  
R 3  23331987.080   124897988.289        3888.254          47.750    23331992.860    97142888.812        3023.746          46.000  
G 9                                                                                                                                
G27                                                                                                                                
G28                                                                                                                                
G14                                                                                                                                
G12                                                                                                                                
G 7                                                                                                                                
G26                                                                                                                                
> 2020  9 16 11 53 51.0000000  0 19       0.000000000000
G19                                                                                                                                
G 3  20410471.880   107257754.738         761.051          54.750    20410473.620    83577483.504         592.555          51.750  
G 4  22755006.760   119578362.047        3418.602          50.000    22755006.040    93177948.613        2664.445          48.000  
G11  21953051.000   115364071.445       -3360.691          50.000                                                                  
G22  20676514.800   108655816.312        -652.410          54.500                                                                  
G 1  20401730.080   107211808.504       -1283.156          55.250    20401731.600    83541695.559        -999.305          52.000  
G17  22608612.900   118809058.398        1831.406          50.250    22608611.320    92578497.176        1427.086          46.500  
R 1  20680453.360   110548901.293       -3014.711          49.500    20680459.080    85982481.188       -2344.398          44.500  
R18  22430438.340   119735242.484        3955.324          50.500    22430443.720    93127413.961        3075.863          50.000  
R24  20413643.820   109160975.793       -2994.895          53.750    20413650.300    84902976.586       -2330.355          53.000  
R17  19235183.040   102931376.293        1076.785          53.750    19235189.340    80057735.863         837.219          53.250  
R 3  23331260.140   124894097.273        3887.527          47.750    23331265.720    97139862.484        3023.617          46.000  
G 9                                                                                                                                
G27                                                                                                                                
G28                                                                                                                                
G14                                                                                                                                
G12                                                                                                                                
G 7                                                                                                                                
G26                                                                                                                                
> 2020  9 16 11 53 52.0000000  0 19       0.000000000000
G19                                                                                                                                
G 3  20410326.620   107256991.727         760.598          54.250    20410328.540    83576888.949         591.855          51.750  
G 4  22754355.380   119574939.945        3421.004          49.500    22754354.960    93175282.039        2664.090          47.750  
G11  21953690.080   115367430.008       -3361.176          49.500                                                                  
G22  20676638.320   108656465.785        -652.262          54.000                                                                  
G 1  20401973.580   107213088.523       -1282.934          54.750    20401975.060    83542692.980       -1000.496          52.000  
G17  22608263.660   118807223.336        1832.285          50.000    22608262.120    92577067.270        1427.355          46.500  
R 1  20681016.880   110551913.246       -3014.922          49.250    20681022.040    85984823.809       -2344.430          44.750  
R18  22429697.080   119731284.996        3954.262          50.250    22429702.020    93124335.922        3076.562          50.250  
R24  20414203.820   109163968.762       -2995.832          53.500    20414209.780    84905304.449       -2329.379          53.000  
R17  19234981.440   102930297.473        1075.516          53.500    19234987.520    80056896.777         836.430          53.500  
R 3  23330533.180   124890206.793        3887.668          47.750    23330538.540    97136836.543        3023.008          46.000  
G 9                                                                                                                                
G27                                                                                                                                
G28                                                                                                                                
G14                                                                                                                                
G12                                                                                                                                
G 7                                                                                                                                
G26                                                                                                                                
> 2020  9 16 11 53 53.0000000  0 19       0.000000000000
G19                                                                                                                                
G 3  20410181.280   107256228.715         760.188          54.250    20410183.400    83576294.395         592.082          51.750  
G 4  22753703.800   119571517.703        3419.461          49.250    22753703.740    93172615.352        2664.809          47.750  
G11  21954329.160   115370788.508       -3360.465          49.500                                                                  
G22  20676761.980   108657115.191        -652.590          54.250                                                                  
G 1  20402217.060   107214368.609       -1283.273          54.750    20402218.520    83543690.449        -999.539          52.000  
G17  22607914.440   118805388.363        1832.031          50.000    22607912.980    92575637.414        1427.090          46.500  
R 1  20681579.900   110554925.129       -3015.078          49.000    20681585.260    85987166.387       -2343.711          44.750  
R18  22428955.440   119727327.328        3955.652          50.500    22428961.140    93121257.738        3075.406          50.250  
R24  20414763.620   109166961.926       -2995.492          53.500    20414769.360    84907632.461       -2330.258          53.000  
R17  19234779.480   102929219.020        1075.906          53.250    19234785.840    80056057.988         836.363          53.500  
R 3  23329805.960   124886316.078        3888.703          47.500    23329811.080    97133810.438        3022.559          46.000  
G 9                                                                                                                                
G27                                                                                                                                
G28                                                                                                                                
G14                                                                                                                                
G12                                                                                                                                
G 7                                                                                                                                
G26                                                                                                                                
> 2020  9 16 11 53 54.0000000  0 19       0.000000000000
G19                                                                                                                                
G 3  20410036.180   107255466.227         760.594          54.500    20410038.200    83575700.250         591.586          51.750  
G 4  22753052.280   119568095.820        3417.816          49.500    22753052.680    93169948.961        2663.930          47.750  
G11  21954968.520   115374147.465       -3362.562          50.000                                                                  
G22  20676885.700   108657765.047        -652.836          54.500                                                                  
G 1  20402460.800   107215649.273       -1283.418          55.000    20402462.120    83544688.363       -1000.789          51.750  
G17  22607565.260   118803554.004        1830.930          50.250    22607564.260    92574208.043        1426.875          46.750  
R 1  20682143.260   110557937.484       -3015.766          49.000    20682149.720    85989509.344       -2344.234          44.500  
R18  22428214.460   119723370.020        3953.660          50.500    22428219.820    93118179.828        3075.336          50.500  
R24  20415323.440   109169955.781       -2996.602          53.500    20415329.280    84909961.012       -2330.672          53.000  
R17  19234578.300   102928141.434        1074.406          53.500    19234584.300    80055219.867         835.707          53.500  
R 3  23329079.560   124882425.664        3887.621          47.500    23329084.060    97130784.570        3023.414          45.750  
G 9                                                                                                                                
G27                                                                                                                                
G28                                                                                                                                
G14                                                                                                                                
G12                                                                                                                                
G 7                                                                                                                                
G26                                                                                                                                
> 2020  9 16 11 53 55.0000000  0 19       0.000000000000
G19                                                                                                                                
G 3  20409891.760   107254706.957         759.211          54.500    20409893.660    83575108.617         591.578          51.500  
G 4  22752401.660   119564677.031        3419.023          49.500    22752402.020    93167284.984        2663.715          47.750  
G11  21955608.480   115377509.582       -3362.824          50.250                                                                  
G22  20677010.000   108658418.070        -653.051          54.750                                                                  
G 1  20402704.960   107216933.223       -1284.914          55.250    20402706.500    83545688.848       -1000.621          51.750  
G17  22607216.840   118801722.984        1830.789          50.250    22607215.800    92572781.281        1425.832          46.750  
R 1  20682707.320   110560953.066       -3015.668          49.000    20682713.580    85991854.797       -2344.852          44.500  
R18  22427473.840   119719415.785        3954.633          50.500    22427478.740    93115104.316        3074.414          50.250  
R24  20415884.140   109172953.078       -2998.074          53.500    20415889.740    84912292.250       -2331.098          52.750  
R17  19234377.440   102927067.488        1073.652          53.500    19234383.660    80054384.570         834.988          53.250  
R 3  23328353.260   124878538.340        3886.527          47.750    23328357.740    97127761.105        3023.785          45.750  
G 9                                                                                                                                
G27                                                                                                                                
G28                                                                                                                                
G14                                                                                                                                
G12                                                                                                                                
G 7                                                                                                                                
G26                                                                                                                                
> 2020  9 16 11 53 56.0000000  0 19       0.000000000000
G19                                                                                                                                
G 3  20409746.880   107253945.488         757.980          54.750    20409748.740    83574515.258         591.098          51.500  
G 4  22751750.540   119561255.887        3417.410          49.750    22751751.160    93164619.160        2663.398          47.750  
G11  21956248.060   115380869.438       -3362.699          50.500                                                                  
G22  20677133.880   108659068.809        -653.801          55.000                                                                  
G 1  20402948.880   107218215.023       -1284.848          55.250    20402950.500    83546687.652       -1001.602          51.750  
G17  22606867.960   118799889.832        1829.363          50.500    22606867.060    92571352.848        1426.203          46.750  
R 1  20683271.360   110563966.332       -3016.797          49.250    20683277.240    85994198.445       -2346.062          44.250  
R18  22426733.260   119715459.086        3954.723          50.750    22426737.600    93112026.891        3075.641          49.750  
R24  20416444.300   109175948.289       -2998.988          53.750    20416449.560    84914621.855       -2332.508          52.500  
R17  19234176.460   102925991.629        1073.176          53.500    19234182.200    80053547.793         833.707          53.000  
R 3  23327625.900   124874648.562        3885.309          47.500    23327631.060    97124735.723        3020.812          45.500  
G 9                                                                                                                                
G27                                                                                                                                
G28                                                                                                                                
G14                                                                                                                                
G12                                                                                                                                
G 7                                                                                                                                
G26                                                                                                                                
> 2020  9 16 11 53 57.0000000  0 19       0.000000000000
G19                                                                                                                                
G 3  20409602.140   107253184.695         757.527          54.750    20409603.960    83573922.438         590.395          51.500  
G 4  22751099.500   119557835.297        3417.082          49.500    22751100.100    93161953.762        2663.332          47.750  
G11  21956887.500   115384229.910       -3362.773          50.500                                                                  
G22  20677257.860   108659720.168        -654.242          55.000                                                                  
G 1  20403193.000   107219497.562       -1285.137          55.250    20403194.440    83547687.035       -1001.434          51.750  
G17  22606519.340   118798057.473        1830.008          50.750    22606518.480    92569925.035        1425.051          46.750  
R 1  20683835.560   110566980.254       -3017.047          49.250    20683840.420    85996542.613       -2349.043          44.000  
R18  22425992.260   119711502.875        3954.023          50.750    22425996.580    93108949.836        3076.215          49.750  
R24  20417004.440   109178944.383       -2999.184          53.750    20417010.080    84916952.152       -2333.574          52.500  
R17  19233975.440   102924916.836        1072.059          53.500    19233981.580    80052711.840         833.344          53.000  
R 3  23326899.560   124870759.297        3886.227          47.750    23326904.580    97121710.742        3023.164          45.500  
G 9                                                                                                                                
G27                                                                                                                                
G28                                                                                                                                
G14                                                                                                                                
G12                                                                                                                                
G 7                                                                                                                                
G26                                                                                                                                
> 2020  9 16 11 53 58.0000000  0 19       0.000000000000
G19                                                                                                                                
G 3  20409457.580   107252424.438         757.137          54.500    20409459.200    83573330.031         590.734          51.750  
G 4  22750448.480   119554415.098        3416.309          49.250    22750449.240    93159288.668        2662.301          48.000  
G11  21957526.940   115387590.863       -3362.734          50.000                                                                  
G22  20677381.860   108660371.996        -654.223          54.500                                                                  
G 1  20403437.220   107220780.703       -1285.695          55.000    20403438.560    83548686.879       -1002.992          51.750  
G17  22606170.960   118796225.742        1830.238          50.250    22606170.020    92568497.719        1424.070          47.000  
R 1  20684399.300   110569994.652       -3016.320          49.000    20684404.360    85998887.141       -2347.832          44.000  
R18  22425251.380   119707547.016        3953.453          50.750    22425255.780    93105873.059        3076.145          49.750  
R24  20417564.640   109181941.195       -2999.633          53.500    20417570.480    84919283.004       -2332.223          52.500  
R17  19233774.880   102923842.945        1071.430          53.500    19233781.060    80051876.590         831.949          53.000  
R 3  23326172.720   124866870.355        3885.949          47.750    23326177.680    97118686.004        3021.438          45.750  
G 9                                                                                                                                
G27                                                                                                                                
G28                                                                                                                                
G14                                                                                                                                
G12                                                                                                                                
G 7                                                                                                                                
G26                                                                                                                                
> 2020  9 16 11 53 59.0000000  0 19       0.000000000000
G19                                                                                                                                
G 3  20409312.920   107251664.340         757.496          54.500    20409314.460    83572737.742         590.836          51.750  
G 4  22749797.840   119550994.910        3416.883          49.750    22749798.200    93156623.605        2663.316          47.750  
G11  21958166.460   115390951.906       -3362.766          50.250                                                                  
G22  20677505.880   108661023.918        -654.785          54.750                                                                  
G 1  20403681.500   107222064.051       -1286.590          55.250    20403682.600    83549686.891       -1003.500          51.750  
G17  22605822.160   118794394.258        1828.574          50.750    22605821.480    92567070.594        1425.645          47.250  
R 1  20684963.340   110573009.145       -3016.883          49.250    20684967.880    86001231.746       -2344.348          44.000  
R18  22424510.100   119703591.125        3952.109          51.000    22424514.960    93102796.254        3073.754          49.750  
R24  20418124.860   109184938.301       -3000.031          53.500    20418130.940    84921614.074       -2333.238          52.250  
R17  19233574.520   102922769.566        1070.398          53.500    19233580.420    80051041.746         832.586          53.000  
R 3  23325446.420   124862981.312        3887.309          48.000    23325452.840    97115661.211        3022.992          45.750  
G 9                                                                                                                                
G27                                                                                                                                
G28                                                                                                                                
G14                                                                                                                                
G12                                                                                                                                
G 7                                                                                                                                
G26                                                                                                                                
> 2020  9 16 11 54  0.0000000  0 19       0.000000000000
G19                                                                                                                                
G 3  20409168.500   107250905.195         757.512          54.500    20409170.040    83572146.203         589.730          51.750  
G 4  22749147.340   119547575.527        3416.629          49.750    22749147.560    93153959.148        2662.172          47.750  
G11  21958806.560   115394313.832       -3362.711          50.250                                                                  
G22  20677630.220   108661676.727        -654.258          54.750                                                                  
G 1  20403926.000   107223348.422       -1286.086          55.000    20403927.020    83550687.699       -1003.043          51.750  
G17  22605473.980   118792563.816        1827.434          50.500    22605473.260    92565644.277        1422.707          47.250  
R 1  20685527.420   110576024.527       -3017.266          49.500    20685531.580    86003577.039       -2348.965          43.750  
R18  22423769.280   119699636.000        3952.980          51.000    22423774.220    93099720.047        3074.812          49.750  
R24  20418685.300   109187936.508       -3000.410          53.750    20418691.600    84923946.020       -2333.637          52.250  
R17  19233374.160   102921697.516        1070.285          53.750    19233380.160    80050207.922         831.652          53.000  
R 3  23324719.700   124859093.012        3885.922          48.000    23324725.500    97112636.984        3023.109          45.500  
G 9                                                                                                                                
G27                                                                                                                                
G28                                                                                                                                
G14                                                                                                                                
G12                                                                                                                                
G 7                                                                                                                                
G26                                                                                                                                
> 2020  9 16 11 54  1.0000000  0 19       0.000000000000
G19                                                                                                                                
G 3  20409024.040   107250145.715         755.938          54.500    20409025.560    83571554.402         588.906          51.750  
G 4  22748496.560   119544155.680        3416.496          49.500    22748496.760    93151294.324        2663.051          47.500  
G11  21959446.360   115397675.371       -3365.102          50.250                                                                  
G22  20677754.320   108662329.133        -655.426          54.750                                                                  
G 1  20404170.260   107224632.512       -1287.344          55.000    20404171.280    83551688.293       -1002.629          51.750  
G17  22605125.800   118790733.152        1827.523          50.500    22605124.980    92564217.777        1424.656          47.250  
R 1  20686091.820   110579039.520       -3019.340          49.500    20686095.360    86005922.027       -2344.996          43.750  
R18  22423028.320   119695680.352        3953.496          50.750    22423033.160    93096643.434        3073.512          49.750  
R24  20419245.980   109190934.586       -3002.008          53.750    20419251.720    84926277.852       -2333.820          52.000  
R17  19233173.680   102920625.469        1068.809          53.750    19233179.800    80049374.117         831.172          53.000  
R 3  23323993.280   124855204.207        3885.152          48.000    23323999.020    97109612.355        3022.875          45.500  
G 9                                                                                                                                
G27                                                                                                                                
G28                                                                                                                                
G14                                                                                                                                
G12                                                                                                                                
G 7                                                                                                                                
G26                                                                                                                                
> 2020  9 16 11 54  2.0000000  0 19       0.000000000000
G19                                                                                                                                
G 3  20408879.700   107249387.578         756.348          54.500    20408881.240    83570963.641         588.824          51.750  
G 4  22747845.960   119540737.031        3415.926          49.500    22747845.980    93148630.441        2661.316          47.500  
G11  21960086.460   115401038.180       -3364.996          50.500                                                                  
G22  20677878.640   108662982.820        -655.973          54.750                                                                  
G 1  20404414.860   107225918.004       -1288.035          55.000    20404415.900    83552689.969       -1002.992          51.750  
G17  22604777.680   118788903.914        1827.059          50.500    22604776.880    92562792.402        1423.602          47.250  
R 1  20686656.400   110582055.816       -3018.359          49.500    20686659.920    86008268.035       -2349.062          43.750  
R18  22422287.500   119691725.895        3952.773          50.750    22422291.880    93093567.750        3073.926          49.750  
R24  20419807.260   109193934.203       -3001.625          53.750    20419812.400    84928610.879       -2335.117          51.750  
R17  19232973.660   102919555.133        1067.785          53.750    19232979.900    80048541.637         830.262          53.000  
R 3  23323266.760   124851316.566        3886.680          48.000    23323273.260    97106588.637        3023.996          45.500  
G 9                                                                                                                                
G27                                                                                                                                
G28                                                                                                                                
G14                                                                                                                                
G12                                                                                                                                
G 7                                                                                                                                
G26                                                                                                                                
> 2020  9 16 11 54  3.0000000  0 19       0.000000000000
G19                                                                                                                                
G 3  20408735.400   107248629.359         756.332          54.500    20408736.900    83570372.824         588.273          51.750  
G 4  22747195.100   119537318.176        3416.867          49.250    22747195.140    93145966.395        2663.469          47.250  
G11  21960726.600   115404400.863       -3363.559          50.500                                                                  
G22  20678003.020   108663636.355        -657.066          54.750                                                                  
G 1  20404659.560   107227203.480       -1287.445          55.250    20404660.500    83553691.641       -1003.297          51.750  
G17  22604429.700   118787074.691        1827.348          50.500    22604428.760    92561367.035        1422.609          47.250  
R 1  20687220.780   110585071.961       -3017.859          49.500    20687224.420    86010613.934       -2347.918          43.750  
R18  22421546.880   119687771.168        3952.953          50.750    22421550.660    93090491.848        3072.945          49.750  
R24  20420368.620   109196933.883       -3002.703          53.750    20420373.260    84930943.969       -2335.773          51.750  
R17  19232774.080   102918485.074        1067.516          53.750    19232779.740    80047709.363         830.852          53.000  
R 3  23322540.760   124847428.645        3886.156          48.000    23322545.880    97103564.707        3020.984          45.500  
G 9                                                                                                                                
G27                                                                                                                                
G28                                                                                                                                
G14                                                                                                                                
G12                                                                                                                                
G 7                                                                                                                                
G26                                                                                                                                
> 2020  9 16 11 54  4.0000000  0 19       0.000000000000
G19                                                                                                                                
G 3  20408591.080   107247871.543         754.664          54.500    20408592.620    83569782.309         588.156          51.750  
G 4  22746544.340   119533899.535        3416.559          49.000    22746544.400    93143302.527        2662.367          47.250  
G11  21961366.540   115407763.871       -3365.371          50.500                                                                  
G22  20678127.500   108664290.227        -656.582          54.750                                                                  
G 1  20404904.220   107228489.398       -1289.188          55.250    20404905.160    83554693.652       -1004.730          51.750  
G17  22604081.700   118785245.957        1826.648          50.500    22604080.880    92559942.043        1423.316          47.250  
R 1  20687785.380   110588088.434       -3018.793          49.250    20687789.440    86012960.078       -2348.078          44.000  
R18  22420805.800   119683816.648        3951.645          50.500    22420809.760    93087416.113        3074.875          49.750  
R24  20420930.000   109199934.105       -3003.328          53.750    20420934.080    84933277.457       -2335.941          51.750  
R17  19232574.240   102917415.766        1065.973          53.750    19232580.120    80046877.680         829.309          53.000  
R 3  23321814.360   124843540.887        3884.902          47.750    23321820.560    97100540.910        3022.336          45.500  
G 9                                                                                                                                
G27                                                                                                                                
G28                                                                                                                                
G14                                                                                                                                
G12                                                                                                                                
G 7                                                                                                                                
G26                                                                                                                                
> 2020  9 16 11 54  5.0000000  0 19       0.000000000000
G19                                                                                                                                
G 3  20408446.900   107247114.027         755.305          54.500    20408448.400    83569192.043         587.508          51.500  
G 4  22745893.620   119530481.090        3415.289          49.000    22745893.740    93140638.793        2661.191          47.000  
G11  21962006.580   115411127.129       -3366.012          50.500                                                                  
G22  20678251.940   108664944.348        -657.020          54.750                                                                  
G 1  20405149.120   107229775.695       -1289.832          55.250    20405149.920    83555695.965       -1004.660          51.500  
G17  22603733.800   118783417.621        1825.469          50.500    22603732.880    92558517.375        1422.703          47.250  
R 1  20688349.780   110591105.176       -3018.934          49.250    20688353.520    86015306.434       -2348.922          43.750  
R18  22420064.860   119679862.230        3951.242          50.250    22420069.180    93084340.469        3074.250          49.750  
R24  20421491.000   109202934.812       -3003.473          53.750    20421495.080    84935611.348       -2336.566          51.750  
R17  19232374.760   102916347.129        1065.578          53.750    19232380.360    80046046.523         828.715          53.000  
R 3  23321088.060   124839653.234        3884.688          47.750    23321094.680    97097517.172        3020.867          45.500  
G 9                                                                                                                                
G27                                                                                                                                
G28                                                                                                                                
G14                                                                                                                                
G12                                                                                                                                
G 7                                                                                                                                
G26                                                                                                                                
> 2020  9 16 11 54  6.0000000  0 19       0.000000000000
G19                                                                                                                                
G 3  20408303.180   107246359.562         755.098          54.500    20408304.840    83568604.145         588.285          52.000  
G 4  22745243.600   119527065.539        3416.289          49.250    22745243.380    93137977.320        2661.414          47.000  
G11  21962647.060   115414493.363       -3367.305          50.750                                                                  
G22  20678376.920   108665601.441        -657.266          54.750                                                                  
G 1  20405394.560   107231065.090       -1289.691          55.500    20405395.320    83556700.684       -1004.477          52.000  
G17  22603386.720   118781592.441        1824.531          51.000    22603385.560    92557095.145        1423.508          47.500  
R 1  20688914.040   110594124.938       -3019.570          49.250    20688918.220    86017655.117       -2350.816          44.000  
R18  22419324.140   119675910.703        3952.141          50.500    22419328.780    93081267.039        3073.707          50.000  
R24  20422052.960   109205938.797       -3003.855          54.250    20422057.060    84937947.773       -2337.324          52.000  
R17  19232175.880   102915281.965        1064.969          54.000    19232181.220    80045218.062         829.242          53.000  
R 3  23320362.240   124835768.453        3884.426          48.000    23320369.140    97094495.688        3021.602          46.000  
G 9                                                                                                                                
G27                                                                                                                                
G28                                                                                                                                
G14                                                                                                                                
G12                                                                                                                                
G 7                                                                                                                                
G26                                                                                                                                
> 2020  9 16 11 54  7.0000000  0 19       0.000000000000
G19                                                                                                                                
G 3  20408159.100   107245602.172         753.230          54.250    20408160.780    83568013.973         586.977          52.000  
G 4  22744592.960   119523646.914        3416.051          48.750    22744592.800    93135313.469        2659.887          47.000  
G11  21963286.980   115417856.617       -3366.785          50.750                                                                  
G22  20678501.380   108666255.547        -657.551          54.750                                                                  
G 1  20405639.380   107232351.625       -1290.184          55.250    20405640.120    83557703.188       -1005.047          51.750  
G17  22603039.020   118779764.418        1825.062          51.000    22603037.800    92555670.711        1420.535          47.500  
R 1  20689478.040   110597141.648       -3019.609          49.500    20689482.920    86020001.473       -2349.410          44.250  
R18  22418583.320   119671955.996        3951.355          51.000    22418588.080    93078191.164        3072.820          50.000  
R24  20422614.260   109208939.969       -3004.793          54.500    20422618.180    84940282.023       -2337.121          52.000  
R17  19231976.720   102914214.188        1063.520          54.500    19231981.700    80044387.562         827.742          53.000  
R 3  23319636.120   124831880.488        3884.512          48.250    23319643.480    97091471.711        3020.449          46.000  
G 9                                                                                                                                
G27                                                                                                                                
G28                                                                                                                                
G14                                                                                                                                
G12                                                                                                                                
G 7                                                                                                                                
G26                                                                                                                                
> 2020  9 16 11 54  8.0000000  0 19       0.000000000000
G19                                                                                                                                
G 3  20408015.300   107244845.910         753.492          54.250    20408016.860    83567424.676         587.891          52.000  
G 4  22743942.380   119520229.289        3414.457          48.500    22743942.480    93132650.383        2660.488          47.250  
G11  21963927.400   115421220.938       -3367.078          50.500                                                                  
G22  20678625.960   108666910.719        -657.793          54.500                                                                  
G 1  20405884.460   107233639.340       -1290.652          55.250    20405885.060    83558706.594       -1005.992          52.000  
G17  22602691.380   118777937.641        1824.141          50.750    22602690.020    92554247.250        1421.473          47.750  
R 1  20690042.240   110600159.449       -3020.977          49.250    20690048.040    86022348.625       -2350.410          44.250  
R18  22417842.560   119668002.246        3949.848          50.750    22417847.460    93075116.020        3073.156          50.250  
R24  20423175.680   109211942.477       -3006.426          54.500    20423179.860    84942617.293       -2337.332          51.750  
R17  19231777.500   102913147.898        1062.941          54.500    19231782.400    80043558.230         826.734          53.250  
R 3  23318910.100   124827993.473        3883.793          48.500    23318916.780    97088448.480        3020.180          46.000  
G 9                                                                                                                                
G27                                                                                                                                
G28                                                                                                                                
G14                                                                                                                                
G12                                                                                                                                
G 7                                                                                                                                
G26                                                                                                                                
> 2020  9 16 11 54  9.0000000  0 19       0.000000000000
G19                                                                                                                                
G 3  20407871.360   107244090.012         752.703          54.250    20407873.100    83566835.664         585.902          52.000  
G 4  22743291.960   119516811.891        3413.992          48.500    22743292.400    93129987.473        2660.609          47.250  
G11  21964567.900   115424585.586       -3368.332          50.500                                                                  
G22  20678750.680   108667566.195        -658.902          54.500                                                                  
G 1  20406129.680   107234927.492       -1290.301          55.250    20406130.360    83559710.352       -1005.672          52.000  
G17  22602343.920   118776111.336        1822.680          51.000    22602342.480    92552824.156        1419.094          47.750  
R 1  20690606.500   110603177.551       -3020.965          49.000    20690611.480    86024696.035       -2348.797          44.250  
R18  22417102.000   119664048.684        3950.699          51.000    22417107.040    93072041.027        3072.613          50.000  
R24  20423736.940   109214945.512       -3006.496          54.750    20423741.380    84944952.988       -2338.273          52.000  
R17  19231578.600   102912082.312        1062.863          54.750    19231583.480    80042729.449         826.758          53.250  
R 3  23318184.340   124824106.664        3883.793          48.250    23318190.240    97085425.402        3021.289          46.000  
G 9                                                                                                                                
G27                                                                                                                                
G28                                                                                                                                
G14                                                                                                                                
G12                                                                                                                                
G 7                                                                                                                                
G26                                                                                                                                
> 2020  9 16 11 54 10.0000000  0 19       0.000000000000
G19                                                                                                                                
G 3  20407727.560   107243333.941         752.707          54.000    20407729.240    83566246.516         586.840          52.250  
G 4  22742641.500   119513394.172        3412.547          47.750    22742642.240    93127324.309        2658.992          47.500  
G11  21965208.200   115427950.000       -3365.812          50.250                                                                  
G22  20678875.400   108668221.422        -659.039          54.000                                                                  
G 1  20406374.760   107236215.520       -1291.711          55.000    20406375.520    83560714.012       -1006.488          52.250  
G17  22601996.620   118774284.934        1822.445          50.750    22601994.840    92551400.984        1419.707          48.000  
R 1  20691171.480   110606195.387       -3021.477          48.750    20691177.140    86027043.254       -2349.969          44.500  
R18  22416361.160   119660094.758        3949.914          50.750    22416366.700    93068965.758        3072.109          50.250  
R24  20424298.300   109217948.496       -3007.062          54.750    20424303.340    84947288.652       -2337.832          52.250  
R17  19231379.500   102911016.895        1061.527          54.500    19231384.420    80041900.789         825.727          53.250  
R 3  23317458.540   124820219.457        3883.457          48.250    23317463.900    97082402.023        3020.223          46.000  
G 9                                                                                                                                
G27                                                                                                                                
G28                                                                                                                                
G14                                                                                                                                
G12                                                                                                                                
G 7                                                                                                                                
G26                                                                                                                                
> 2020  9 16 11 54 11.0000000  0 19       0.000000000000
G19                                                                                                                                
G 3  20407583.780   107242578.551         752.148          54.000    20407585.520    83565657.902         586.117          52.250  
G 4  22741991.020   119509976.996        3414.242          48.000    22741992.260    93124661.574        2660.105          47.500  
G11  21965848.560   115431315.023       -3367.672          50.500                                                                  
G22  20679000.160   108668877.266        -659.711          54.000                                                                  
G 1  20406619.980   107237504.289       -1291.641          55.000    20406620.900    83561718.246       -1006.953          52.250  
G17  22601649.060   118772459.309        1822.320          50.750    22601647.160    92549978.422        1419.723          47.750  
R 1  20691735.620   110609213.859       -3020.848          48.750    20691741.440    86029390.965       -2349.121          44.500  
R18  22415619.980   119656141.340        3950.305          50.500    22415625.880    93065890.883        3073.668          50.250  
R24  20424860.160   109220952.316       -3006.848          54.500    20424864.780    84949624.953       -2338.156          52.250  
R17  19231180.620   102909952.547        1061.309          54.500    19231185.340    80041072.965         825.734          53.250  
R 3  23316732.400   124816332.734        3884.398          48.250    23316738.000    97079379.023        3021.430          46.000  
G 9                                                                                                                                
G27                                                                                                                                
G28                                                                                                                                
G14                                                                                                                                
G12                                                                                                                                
G 7                                                                                                                                
G26                                                                                                                                
> 2020  9 16 11 54 12.0000000  0 19       0.000000000000
G19                                                                                                                                
G 3  20407439.940   107241822.688         751.871          54.000    20407441.580    83565068.918         585.418          52.250  
G 4  22741340.540   119506559.203        3414.945          47.750    22741342.220    93121998.355        2660.203          48.000  
G11  21966488.940   115434679.512       -3369.309          50.250                                                                  
G22  20679124.780   108669532.570        -659.211          54.000                                                                  
G 1  20406865.100   107238792.645       -1292.438          54.750    20406865.920    83562722.156       -1006.938          52.500  
G17  22601301.780   118770633.305        1821.203          50.750    22601299.740    92548555.566        1419.719          47.750  
R 1  20692299.800   110612231.797       -3021.418          48.500    20692306.580    86031738.242       -2350.859          44.500  
R18  22414879.960   119652187.234        3949.879          50.500    22414885.000    93062815.473        3072.582          50.250  
R24  20425421.980   109223955.840       -3007.559          54.500    20425426.600    84951961.027       -2339.359          52.250  
R17  19230981.780   102908888.066        1060.473          54.500    19230986.400    80040245.039         824.766          53.250  
R 3  23316006.460   124812445.250        3882.422          47.750    23316012.340    97076355.430        3020.461          46.250  
G 9                                                                                                                                
G27                                                                                                                                
G28                                                                                                                                
G14                                                                                                                                
G12                                                                                                                                
G 7                                                                                                                                
G26                                                                                                                                
> 2020  9 16 11 54 13.0000000  0 19       0.000000000000
G19                                                                                                                                
G 3  20407296.320   107241067.590         751.250          54.000    20407298.020    83564480.531         585.879          52.500  
G 4  22740690.000   119503142.043        3413.793          47.500    22740692.280    93119335.633        2659.410          48.000  
G11  21967129.380   115438044.688       -3368.004          50.250                                                                  
G22  20679249.600   108670188.570        -659.590          54.000                                                                  
G 1  20407110.320   107240081.828       -1293.277          54.750    20407111.220    83563726.715       -1006.867          52.500  
G17  22600954.480   118768808.168        1822.109          50.750    22600952.440    92547133.383        1420.363          48.000  
R 1  20692864.660   110615250.449       -3022.555          48.250    20692871.060    86034086.082       -2350.445          44.500  
R18  22414138.940   119648233.695        3950.590          50.250    22414144.660    93059740.504        3071.934          50.250  
R24  20425983.800   109226960.355       -3007.586          54.500    20425988.480    84954297.871       -2339.559          52.500  
R17  19230783.420   102907824.707        1059.168          54.500    19230788.240    80039417.980         823.016          53.500  
R 3  23315280.500   124808558.375        3884.211          47.750    23315286.020    97073332.297        3020.582          46.250  
G 9                                                                                                                                
G27                                                                                                                                
G28                                                                                                                                
G14                                                                                                                                
G12                                                                                                                                
G 7                                                                                                                                
G26                                                                                                                                
> 2020  9 16 11 54 14.0000000  0 19       0.000000000000
G19                                                                                                                                
G 3  20407152.880   107240313.289         751.395          54.250    20407154.540    83563892.758         585.301          52.250  
G 4  22740039.800   119499725.523        3414.922          47.750    22740042.080    93116673.422        2660.719          48.250  
G11  21967770.000   115441410.594       -3369.352          50.500                                                                  
G22  20679374.500   108670845.305        -659.461          54.000                                                                  
G 1  20407355.760   107241371.848       -1293.016          54.750    20407356.760    83564731.926       -1007.680          52.500  
G17  22600607.400   118766983.930        1820.871          51.000    22600605.180    92545711.898        1418.688          47.750  
R 1  20693429.260   110618269.844       -3022.301          48.500    20693435.640    86036434.504       -2350.973          44.500  
R18  22413398.720   119644280.773        3949.211          50.500    22413404.360    93056666.004        3071.613          50.500  
R24  20426546.260   109229965.875       -3008.266          54.750    20426550.960    84956635.500       -2340.125          52.500  
R17  19230584.780   102906762.512        1058.230          54.750    19230589.780    80038591.828         822.711          53.500  
R 3  23314554.620   124804672.113        3884.293          47.750    23314560.140    97070309.656        3021.105          46.250  
G 9                                                                                                                                
G27                                                                                                                                
G28                                                                                                                                
G14                                                                                                                                
G12                                                                                                                                
G 7                                                                                                                                
G26                                                                                                                                
> 2020  9 16 11 54 15.0000000  0 19       0.000000000000
G19                                                                                                                                
G 3  20407009.300   107239559.035         751.133          54.250    20407011.060    83563305.031         585.207          52.250  
G 4  22739389.480   119496308.926        3412.676          47.500    22739392.040    93114011.141        2660.309          48.250  
G11  21968410.580   115444776.500       -3369.309          50.750                                                                  
G22  20679499.400   108671502.031        -659.660          54.000                                                                  
G 1  20407601.080   107242661.992       -1293.613          54.750    20407602.240    83565737.230       -1007.926          52.500  
G17  22600260.240   118765159.828        1820.426          51.000    22600258.160    92544290.520        1417.367          47.750  
R 1  20693994.500   110621289.234       -3022.598          48.500    20694000.500    86038782.922       -2349.652          44.250  
R18  22412658.060   119640327.695        3950.445          50.750    22412663.860    93053591.391        3072.473          50.500  
R24  20427108.380   109232971.598       -3009.363          54.750    20427112.940    84958973.277       -2340.262          52.500  
R17  19230386.420   102905700.742        1057.777          54.750    19230391.540    80037766.008         822.906          53.500  
R 3  23313828.480   124800785.707        3881.180          47.750    23313834.880    97067286.906        3020.145          46.500  
G 9                                                                                                                                
G27                                                                                                                                
G28                                                                                                                                
G14                                                                                                                                
G12                                                                                                                                
G 7                                                                                                                                
G26                                                                                                                                
> 2020  9 16 11 54 16.0000000  0 19       0.000000000000
G19                                                                                                                                
G 3  20406865.840   107238804.980         750.184          54.250    20406867.560    83562717.453         585.012          52.250  
G 4  22738739.320   119492892.375        3413.785          47.500    22738742.060    93111348.883        2656.855          48.250  
G11  21969051.020   115448142.531       -3369.188          50.750                                                                  
G22  20679624.460   108672158.879        -660.527          54.000                                                                  
G 1  20407846.640   107243952.395       -1294.605          54.750    20407847.920    83566742.742       -1009.090          52.500  
G17  22599913.240   118763336.035        1821.371          51.250    22599911.140    92542869.375        1418.945          47.750  
R 1  20694558.800   110624308.754       -3024.496          48.250    20694565.920    86041131.422       -2349.500          44.250  
R18  22411917.920   119636374.641        3949.012          50.500    22411923.340    93050516.789        3070.559          50.250  
R24  20427670.520   109235977.633       -3009.605          54.500    20427675.380    84961311.309       -2340.973          52.500  
R17  19230188.160   102904639.508        1057.148          54.750    19230193.160    80036940.602         821.676          53.250  
R 3  23313102.500   124796899.297        3882.980          47.500    23313108.460    97064264.145        3019.398          46.000  
G 9                                                                                                                                
G27                                                                                                                                
G28                                                                                                                                
G14                                                                                                                                
G12                                                                                                                                
G 7                                                                                                                                
G26                                                                                                                                
> 2020  9 16 11 54 17.0000000  0 19       0.000000000000
G19                                                                                                                                
G 3  20406723.120   107238054.855         750.137          54.250    20406724.820    83562132.941         584.922          52.250  
G 4  22738089.740   119489479.621        3413.973          47.500    22738092.900    93108689.598        2659.266          48.250  
G11  21969692.300   115451512.422       -3370.008          50.750                                                                  
G22  20679750.160   108672819.590        -661.574          54.250                                                                  
G 1  20408092.800   107245246.773       -1294.391          54.750    20408094.200    83567751.352       -1008.562          52.250  
G17  22599567.000   118761516.246        1819.594          51.000    22599564.760    92541451.367        1418.953          47.750  
R 1  20695124.620   110627332.191       -3022.570          48.250    20695131.260    86043482.988       -2352.344          44.250  
R18  22411178.160   119632425.406        3949.277          50.500    22411184.060    93047445.172        3070.879          50.250  
R24  20428233.480   109238987.809       -3010.418          54.500    20428238.460    84963652.555       -2341.969          52.500  
R17  19229990.880   102903582.633        1056.332          54.750    19229996.000    80036118.590         822.035          53.500  
R 3  23312377.200   124793016.637        3881.805          47.250    23312383.180    97061244.305        3018.840          46.250  
G 9                                                                                                                                
G27                                                                                                                                
G28                                                                                                                                
G14                                                                                                                                
G12                                                                                                                                
G 7                                                                                                                                
G26                                                                                                                                
> 2020  9 16 11 54 18.0000000  0 19       0.000000000000
G19                                                                                                                                
G 3  20406579.760   107237302.383         749.078          54.750    20406581.620    83561546.605         582.480          52.000  
G 4  22737439.880   119486064.367        3411.758          48.000    22737443.040    93106028.371        2658.961          48.000  
G11  21970333.000   115454879.906       -3371.055          51.250                                                                  
G22  20679875.400   108673477.895        -661.789          54.750                                                                  
G 1  20408338.640   107246538.867       -1295.387          55.000    20408340.140    83568758.176       -1007.887          52.250  
G17  22599220.400   118759694.215        1819.215          51.500    22599218.100    92540031.605        1417.777          47.500  
R 1  20695689.320   110630353.160       -3023.176          48.250    20695695.720    86045832.648       -2351.000          44.250  
R18  22410438.040   119628473.594        3948.305          50.750    22410444.160    93044371.547        3071.930          50.500  
R24  20428796.360   109241995.770       -3010.793          54.750    20428801.200    84965992.074       -2343.625          52.750  
R17  19229793.060   102902523.707        1054.809          54.750    19229797.920    80035294.984         821.070          53.500  
R 3  23311651.980   124789131.363        3882.633          47.250    23311657.900    97058222.434        3019.277          46.500  
G 9                                                                                                                                
G27                                                                                                                                
G28                                                                                                                                
G14                                                                                                                                
G12                                                                                                                                
G 7                                                                                                                                
G26                                                                                                                                
> 2020  9 16 11 54 19.0000000  0 19       0.000000000000
G19                                                                                                                                
G 3  20406436.700   107236549.895         748.930          54.500    20406438.360    83560960.250         583.434          52.000  
G 4  22736789.900   119482648.969        3413.828          48.000    22736793.120    93103367.016        2658.430          48.250  
G11  21970973.660   115458247.305       -3369.910          50.750                                                                  
G22  20680000.680   108674136.113        -661.875          54.500                                                                  
G 1  20408584.500   107247831.012       -1296.957          54.750    20408586.040    83569765.043       -1009.629          52.000  
G17  22598873.720   118757872.266        1818.102          51.500    22598871.320    92538611.902        1417.156          47.500  
R 1  20696254.600   110633374.062       -3023.820          48.000    20696260.840    86048182.230       -2351.988          44.250  
R18  22409697.920   119624521.578        3947.910          50.500    22409703.820    93041297.746        3071.328          50.500  
R24  20429358.900   109245003.914       -3011.719          54.500    20429363.680    84968331.742       -2342.000          52.750  
R17  19229595.180   102901465.145        1054.090          54.500    19229599.980    80034471.656         819.641          53.500  
R 3  23310926.080   124785245.875        3882.730          47.000    23310932.520    97055200.379        3019.840          46.250  
G 9                                                                                                                                
G27                                                                                                                                
G28                                                                                                                                
G14                                                                                                                                
G12                                                                                                                                
G 7                                                                                                                                
G26                                                                                                                                
> 2020  9 16 11 54 20.0000000  0 19       0.000000000000
G19                                                                                                                                
G 3  20406293.780   107235798.793         748.504          54.500    20406295.360    83560374.980         583.270          51.750  
G 4  22736140.380   119479234.816        3411.742          48.000    22736143.680    93100706.652        2660.098          48.250  
G11  21971614.700   115461616.031       -3374.055          50.750                                                                  
G22  20680126.200   108674795.656        -661.992          54.250                                                                  
G 1  20408830.620   107249124.602       -1295.426          54.750    20408832.240    83570773.027       -1009.922          52.250  
G17  22598527.400   118756051.809        1817.086          51.250    22598524.960    92537193.359        1415.883          47.500  
R 1  20696820.440   110636396.312       -3024.957          48.250    20696826.180    86050532.871       -2352.684          44.250  
R18  22408957.580   119620570.766        3948.582          50.500    22408963.920    93038224.898        3070.773          50.500  
R24  20429921.660   109248013.617       -3012.082          54.500    20429926.840    84970672.613       -2342.391          52.750  
R17  19229397.300   102900408.348        1053.871          54.500    19229402.540    80033649.707         819.992          53.250  
R 3  23310200.660   124781361.605        3881.848          47.000    23310207.240    97052179.301        3020.230          46.500  
G 9                                                                                                                                
G27                                                                                                                                
G28                                                                                                                                
G14                                                                                                                                
G12                                                                                                                                
G 7                                                                                                                                
G26                                                                                                                                
> 2020  9 16 11 54 21.0000000  0 19       0.000000000000
G19                                                                                                                                
G 3  20406151.040   107235048.391         748.137          54.500    20406152.500    83559790.254         582.621          51.750  
G 4  22735491.000   119475821.219        3412.074          48.250    22735494.220    93098046.703        2659.105          48.250  
G11  21972255.740   115464985.375       -3372.969          50.750                                                                  
G22  20680251.840   108675455.816        -663.672          54.500                                                                  
G 1  20409076.760   107250418.941       -1296.602          54.750    20409078.500    83571781.609       -1010.004          52.250  
G17  22598181.100   118754232.145        1817.957          51.500    22598178.820    92535775.441        1415.227          47.750  
R 1  20697385.840   110639419.191       -3024.668          48.250    20697391.400    86052884.004       -2353.355          44.250  
R18  22408217.460   119616620.453        3947.766          50.250    22408223.860    93035152.441        3070.801          50.750  
R24  20430484.620   109251024.180       -3012.418          54.500    20430490.280    84973014.164       -2344.176          53.000  
R17  19229199.880   102899352.602        1053.020          54.250    19229204.920    80032828.570         819.449          53.250  
R 3  23309475.260   124777477.855        3882.379          46.750    23309481.900    97049158.621        3018.875          46.500  
G 9                                                                                                                                
G27                                                                                                                                
G28                                                                                                                                
G14                                                                                                                                
G12                                                                                                                                
G 7                                                                                                                                
G26                                                                                                                                
> 2020  9 16 11 54 22.0000000  0 19       0.000000000000
G19                                                                                                                                
G 3  20406008.200   107234297.609         747.465          54.500    20406009.580    83559205.227         581.652          52.000  
G 4  22734841.420   119472407.113        3411.430          48.500    22734844.560    93095386.355        2658.270          48.250  
G11  21972896.880   115468354.297       -3371.277          50.750                                                                  
G22  20680377.360   108676115.551        -662.387          54.500                                                                  
G 1  20409323.060   107251712.973       -1297.945          54.750    20409324.660    83572789.945       -1010.637          52.000  
G17  22597834.780   118752412.211        1817.516          51.500    22597832.420    92534357.312        1416.430          47.750  
R 1  20697952.020   110642441.629       -3025.469          48.250    20697957.020    86055234.793       -2353.086          44.250  
R18  22407477.080   119612669.570        3947.121          50.500    22407483.300    93032079.520        3071.125          50.500  
R24  20431047.640   109254034.512       -3013.582          54.500    20431053.420    84975355.539       -2344.098          53.000  
R17  19229002.220   102898296.812        1052.223          54.250    19229007.620    80032007.395         818.133          53.000  
R 3  23308749.080   124773593.512        3882.492          46.500    23308756.180    97046137.469        3016.832          46.250  
G 9                                                                                                                                
G27                                                                                                                                
G28                                                                                                                                
G14                                                                                                                                
G12                                                                                                                                
G 7                                                                                                                                
G26                                                                                                                                
> 2020  9 16 11 54 23.0000000  0 19       0.000000000000
G19                                                                                                                                
G 3  20405865.340   107233547.516         747.750          54.750    20405866.760    83558620.742         582.203          51.750  
G 4  22734192.340   119468993.559        3410.402          48.750    22734194.820    93092726.438        2657.547          48.250  
G11  21973538.080   115471723.840       -3371.992          50.750                                                                  
G22  20680503.100   108676775.898        -662.629          54.500                                                                  
G 1  20409569.460   107253007.750       -1297.559          54.750    20409570.900    83573798.855       -1011.797          52.000  
G17  22597488.600   118750593.059        1816.953          51.500    22597486.380    92532939.785        1416.023          47.750  
R 1  20698516.780   110645464.691       -3024.551          48.000    20698523.100    86057586.062       -2352.492          44.500  
R18  22406736.660   119608719.180        3947.746          50.500    22406743.620    93029006.996        3070.719          50.500  
R24  20431610.900   109257045.738       -3014.328          54.250    20431616.720    84977697.594       -2344.754          53.250  
R17  19228804.780   102897242.098        1051.883          54.000    19228810.420    80031187.059         818.379          53.000  
R 3  23308023.520   124769709.660        3880.773          46.000    23308030.640    97043116.699        3017.867          46.250  
G 9                                                                                                                                
G27                                                                                                                                
G28                                                                                                                                
G14                                                                                                                                
G12                                                                                                                                
G 7                                                                                                                                
G26                                                                                                                                
> 2020  9 16 11 54 24.0000000  0 19       0.000000000000
G19                                                                                                                                
G 3  20405722.740   107232797.445         747.301          55.000    20405723.940    83558036.270         582.426          51.750  
G 4  22733543.000   119465579.867        3410.496          49.000    22733545.160    93090066.426        2657.363          48.250  
G11  21974179.320   115475093.328       -3372.926          51.000                                                                  
G22  20680628.840   108677436.199        -662.895          54.750                                                                  
G 1  20409815.880   107254302.598       -1298.859          55.000    20409817.280    83574807.824       -1011.676          52.000  
G17  22597142.260   118748774.008        1816.684          51.750    22597140.480    92531522.344        1415.367          47.750  
R 1  20699081.860   110648487.715       -3025.531          47.750    20699089.560    86059937.297       -2354.809          44.750  
R18  22405996.720   119604768.633        3946.664          50.000    22406003.480    93025934.355        3069.852          50.750  
R24  20432173.680   109260057.160       -3014.195          53.750    20432180.300    84980039.809       -2345.270          53.250  
R17  19228607.620   102896187.785        1051.195          53.750    19228612.940    80030367.043         816.461          53.000  
R 3  23307296.840   124765825.605        3880.973          45.000    23307305.500    97040095.766        3017.383          46.250  
G 9                                                                                                                                
G27                                                                                                                                
G28                                                                                                                                
G14                                                                                                                                
G12                                                                                                                                
G 7                                                                                                                                
G26                                                                                                                                
> 2020  9 16 11 54 25.0000000  0 19       0.000000000000
G19                                                                                                                                
G 3  20405580.200   107232048.395         747.004          55.000    20405581.240    83557452.598         581.250          51.500  
G 4  22732893.620   119462167.082        3410.465          49.000    22732895.720    93087407.109        2658.523          48.250  
G11  21974820.700   115478463.773       -3373.777          51.000                                                                  
G22  20680754.660   108678097.457        -663.332          54.750                                                                  
G 1  20410062.460   107255598.543       -1298.117          55.000    20410064.040    83575817.648       -1011.031          52.000  
G17  22596796.260   118746956.102        1814.426          51.500    22596794.480    92530105.797        1414.984          47.750  
R 1  20699647.120   110651511.707       -3026.691          47.500    20699654.640    86062289.285       -2352.219          44.750  
R18  22405256.980   119600818.969        3948.277          50.000    22405263.780    93022862.395        3070.188          50.750  
R24  20432736.840   109263069.773       -3015.113          53.750    20432743.820    84982382.949       -2344.996          53.250  
R17  19228410.760   102895134.867        1049.789          53.750    19228416.020    80029548.102         817.496          53.000  
R 3  23306571.120   124761942.371        3880.770          45.000    23306579.300    97037075.469        3018.367          46.000  
G 9                                                                                                                                
G27                                                                                                                                
G28                                                                                                                                
G14                                                                                                                                
G12                                                                                                                                
G 7                                                                                                                                
G26                                                                                                                                
> 2020  9 16 11 54 26.0000000  0 19       0.000000000000
G19                                                                                                                                
G 3  20405438.000   107231300.043         745.414          55.000    20405438.720    83556869.465         581.211          51.750  
G 4  22732244.340   119458754.828        3410.305          49.000    22732246.040    93084748.207        2656.840          48.250  
G11  21975462.100   115481834.852       -3372.684          50.750                                                                  
G22  20680880.680   108678759.340        -663.727          54.750                                                                  
G 1  20410309.220   107256895.230       -1299.469          55.000    20410310.800    83576828.047       -1012.590          52.250  
G17  22596450.320   118745138.957        1813.828          51.500    22596448.760    92528689.848        1413.598          48.000  
R 1  20700212.840   110654536.332       -3025.512          47.750    20700220.400    86064641.777       -2353.836          44.750  
R18  22404517.300   119596869.812        3946.184          50.000    22404523.800    93019790.820        3069.102          50.750  
R24  20433300.300   109266083.207       -3016.121          53.750    20433307.360    84984726.730       -2345.668          53.250  
R17  19228213.960   102894082.965        1049.438          53.750    19228219.160    80028729.961         816.523          52.750  
R 3  23305845.280   124758059.613        3879.043          44.750    23305854.240    97034055.562        3020.320          46.000  
G 9                                                                                                                                
G27                                                                                                                                
G28                                                                                                                                
G14                                                                                                                                
G12                                                                                                                                
G 7                                                                                                                                
G26                                                                                                                                
> 2020  9 16 11 54 27.0000000  0 19       0.000000000000
G19                                                                                                                                
G 3  20405295.740   107230552.129         745.719          54.500    20405296.160    83556286.680         580.816          51.750  
G 4  22731595.100   119455342.895        3408.430          48.750    22731596.720    93082089.566        2656.016          48.250  
G11  21976103.380   115485206.336       -3374.508          50.250                                                                  
G22  20681006.800   108679421.609        -664.102          54.250                                                                  
G 1  20410556.100   107258192.426       -1299.742          54.750    20410557.680    83577838.852       -1012.965          52.250  
G17  22596104.480   118743322.383        1814.387          50.750    22596103.020    92527274.340        1414.816          48.000  
R 1  20700779.080   110657561.355       -3027.285          47.500    20700786.360    86066994.562       -2356.387          44.750  
R18  22403777.200   119592920.926        3946.184          50.250    22403784.000    93016719.469        3069.617          50.750  
R24  20433863.960   109269097.250       -3015.691          54.000    20433871.060    84987070.988       -2345.410          53.250  
R17  19228017.560   102893031.871        1048.434          54.000    19228022.760    80027912.438         815.285          52.750  
R 3  23305120.680   124754177.109        3880.324          44.750    23305129.140    97031035.836        3017.465          46.000  
G 9                                                                                                                                
G27                                                                                                                                
G28                                                                                                                                
G14                                                                                                                                
G12                                                                                                                                
G 7                                                                                                                                
G26                                                                                                                                
> 2020  9 16 11 54 28.0000000  0 19       0.000000000000
G19                                                                                                                                
G 3  20405153.800   107229806.723         745.520          54.500    20405154.380    83555705.844         581.230          51.750  
G 4  22730946.160   119451933.312        3408.973          48.500    22730947.560    93079432.758        2658.293          48.250  
G11  21976745.380   115488580.238       -3373.801          50.250                                                                  
G22  20681133.440   108680086.309        -664.480          54.250                                                                  
G 1  20410803.500   107259492.180       -1298.797          54.500    20410805.080    83578851.645       -1012.824          52.500  
G17  22595759.100   118741508.391        1814.098          50.500    22595757.560    92525860.840        1413.355          48.000  
R 1  20701345.220   110660588.848       -3026.672          47.750    20701352.980    86069349.285       -2354.836          44.750  
R18  22403037.480   119588974.371        3946.812          50.000    22403045.080    93013649.926        3069.184          50.500  
R24  20434428.160   109272114.012       -3016.809          53.750    20434435.000    84989417.359       -2346.121          52.750  
R17  19227821.820   102891983.691        1047.504          54.000    19227826.320    80027097.188         814.973          52.500  
R 3  23304396.000   124750296.973        3882.141          44.500    23304404.320    97028017.949        3017.660          45.750  
G 9                                                                                                                                
G27                                                                                                                                
G28                                                                                                                                
G14                                                                                                                                
G12                                                                                                                                
G 7                                                                                                                                
G26                                                                                                                                
> 2020  9 16 11 54 29.0000000  0 19       0.000000000000
G19                                                                                                                                
G 3  20405011.600   107229059.617         744.895          54.500    20405012.060    83555123.676         580.082          51.750  
G 4  22730296.900   119448521.898        3410.168          48.500    22730298.260    93076774.504        2657.430          48.000  
G11  21977387.180   115491952.363       -3373.062          50.500                                                                  
G22  20681259.480   108680749.234        -665.531          54.250                                                                  
G 1  20411050.600   107260790.277       -1300.285          54.750    20411052.080    83579863.148       -1013.406          52.500  
G17  22595413.420   118739692.793        1813.809          50.500    22595412.060    92524446.074        1413.383          48.000  
R 1  20701910.960   110663614.535       -3027.195          47.750    20701919.080    86071702.586       -2355.496          44.750  
R18  22402297.540   119585025.871        3946.023          49.750    22402305.340    93010578.887        3070.430          50.500  
R24  20434992.160   109275129.238       -3017.539          53.750    20434998.680    84991762.531       -2346.711          52.750  
R17  19227625.600   102890934.148        1047.184          54.000    19227630.560    80026280.871         813.383          52.500  
R 3  23303670.320   124746414.895        3880.633          44.500    23303679.040    97024998.570        3015.531          45.500  
G 9                                                                                                                                
G27                                                                                                                                
G28                                                                                                                                
G14                                                                                                                                
G12                                                                                                                                
G 7                                                                                                                                
G26                                                                                                                                
> 2020  9 16 11 54 30.0000000  0 19       0.000000000000
G19                                                                                                                                
G 3  20404869.540   107228313.180         743.996          55.000    20404870.040    83554542.031         579.312          51.750  
G 4  22729647.840   119445111.008        3409.062          49.000    22729649.120    93074116.668        2655.465          48.000  
G11  21978029.200   115495325.105       -3374.676          51.000                                                                  
G22  20681385.700   108681412.777        -665.012          54.750                                                                  
G 1  20411297.920   107262089.109       -1300.555          55.250    20411299.140    83580875.230       -1013.648          52.250  
G17  22595068.060   118737877.977        1812.477          51.000    22595066.700    92523031.945        1412.648          48.000  
R 1  20702477.580   110666640.828       -3029.074          47.750    20702485.940    86074056.375       -2355.848          44.750  
R18  22401557.680   119581077.875        3945.605          49.750    22401565.780    93007508.223        3069.191          50.250  
R24  20435555.760   109278145.316       -3018.430          53.750    20435562.540    84994108.367       -2348.117          52.750  
R17  19227429.540   102889885.637        1046.531          54.000    19227434.560    80025465.371         813.891          52.500  
R 3  23302945.460   124742533.312        3879.043          44.250    23302953.980    97021979.570        3017.738          45.500  
G 9                                                                                                                                
G27                                                                                                                                
G28                                                                                                                                
G14                                                                                                                                
G12                                                                                                                                
G 7                                                                                                                                
G26                                                                                                                                
> 2020  9 16 11 54 31.0000000  0 19       0.000000000000
G19                                                                                                                                
G 3  20404727.480   107227567.184         743.816          55.000    20404728.040    83553960.742         579.945          51.750  
G 4  22728998.960   119441700.422        3409.488          49.000    22728999.980    93071459.062        2656.793          48.000  
G11  21978671.220   115498698.219       -3375.582          51.250                                                                  
G22  20681512.060   108682076.684        -666.273          54.750                                                                  
G 1  20411545.220   107263388.449       -1301.898          55.500    20411546.360    83581887.707       -1013.637          52.250  
G17  22594722.760   118736063.695        1812.629          51.250    22594721.280    92521618.219        1411.461          48.000  
R 1  20703043.620   110669667.492       -3029.816          48.000    20703051.640    86076410.449       -2356.898          44.750  
R18  22400818.280   119577130.141        3945.715          49.750    22400826.000    93004437.773        3069.250          50.500  
R24  20436119.800   109281162.016       -3018.977          53.750    20436126.400    84996454.691       -2347.520          52.500  
R17  19227233.980   102888837.934        1045.637          54.000    19227238.740    80024650.488         813.367          52.500  
R 3  23302220.380   124738651.945        3881.602          44.000    23302229.060    97018960.742        3017.633          45.250  
G 9                                                                                                                                
G27                                                                                                                                
G28                                                                                                                                
G14                                                                                                                                
G12                                                                                                                                
G 7                                                                                                                                
G26                                                                                                                                
> 2020  9 16 11 54 32.0000000  0 19       0.000000000000
G19                                                                                                                                
G 3  20404585.620   107226821.477         743.625          55.250    20404586.100    83553379.680         579.496          51.750  
G 4  22728349.900   119438290.000        3408.016          49.250    22728350.960    93068801.594        2654.594          47.750  
G11  21979313.060   115502071.562       -3375.594          51.250                                                                  
G22  20681638.380   108682740.824        -666.984          54.750                                                                  
G 1  20411792.620   107264688.141       -1302.004          55.500    20411793.620    83582900.453       -1013.816          52.000  
G17  22594377.620   118734249.805        1810.453          51.250    22594376.240    92520204.797        1411.945          47.750  
R 1  20703609.720   110672694.406       -3029.102          48.000    20703617.760    86078764.711       -2354.164          44.750  
R18  22400078.720   119573182.516        3945.898          50.000    22400086.360    93001367.391        3068.477          50.500  
R24  20436683.840   109284179.172       -3019.898          53.750    20436690.640    84998801.367       -2348.582          52.750  
R17  19227038.140   102887790.898        1044.402          54.000    19227043.320    80023836.121         811.930          52.750  
R 3  23301495.440   124734770.613        3877.230          44.000    23301504.380    97015941.926        3017.418          45.250  
G 9                                                                                                                                
G27                                                                                                                                
G28                                                                                                                                
G14                                                                                                                                
G12                                                                                                                                
G 7                                                                                                                                
G26                                                                                                                                
> 2020  9 16 11 54 33.0000000  0 19       0.000000000000
G19                                                                                                                                
G 3  20404443.780   107226076.020         742.887          55.250    20404444.400    83552798.797         578.348          51.750  
G 4  22727700.920   119434879.672        3408.926          49.250    22727702.000    93066144.203        2654.867          47.750  
G11  21979955.080   115505445.090       -3374.191          51.250                                                                  
G22  20681764.800   108683405.145        -667.137          54.750                                                                  
G 1  20412040.060   107265988.133       -1303.367          55.500    20412040.980    83583913.422       -1015.234          52.000  
G17  22594032.660   118732436.254        1810.770          51.250    22594031.180    92518791.652        1411.391          47.500  
R 1  20704175.920   110675721.492       -3030.418          48.000    20704184.560    86081119.121       -2354.922          45.000  
R18  22399339.200   119569234.941        3944.281          50.000    22399347.160    92998297.059        3068.707          50.750  
R24  20437247.760   109287196.711       -3020.594          53.500    20437254.520    85001148.344       -2349.105          52.750  
R17  19226842.880   102886744.473        1044.402          54.000    19226847.880    80023022.230         811.445          52.750  
R 3  23300770.860   124730889.332        3878.809          43.500    23300778.820    97012923.156        3015.336          45.250  
G 9                                                                                                                                
G27                                                                                                                                
G28                                                                                                                                
G14                                                                                                                                
G12                                                                                                                                
G 7                                                                                                                                
G26                                                                                                                                
> 2020  9 16 11 54 34.0000000  0 19       0.000000000000
G19                                                                                                                                
G 3  20404302.080   107225331.250         742.074          55.250    20404302.720    83552218.457         577.980          51.500  
G 4  22727052.100   119431469.891        3407.066          49.000    22727053.100    93063487.227        2656.297          47.500  
G11  21980597.200   115508819.234       -3376.512          51.250                                                                  
G22  20681891.240   108684070.090        -666.973          54.750                                                                  
G 1  20412287.600   107267288.867       -1302.441          55.500    20412288.540    83584926.996       -1015.547          51.750  
G17  22593687.660   118730623.508        1810.477          51.250    22593686.100    92517379.098        1411.008          47.500  
R 1  20704743.220   110678749.230       -3028.844          48.250    20704750.340    86083474.023       -2358.625          44.750  
R18  22398599.760   119565287.887        3944.434          50.000    22398607.540    92995227.129        3068.523          50.500  
R24  20437812.160   109290215.117       -3021.438          53.750    20437818.800    85003495.992       -2349.293          52.750  
R17  19226647.340   102885699.074        1042.652          54.250    19226652.820    80022209.145         810.500          52.750  
R 3  23300046.100   124727008.559        3877.684          43.250    23300054.100    97009904.781        3016.148          45.250  
G 9                                                                                                                                
G27                                                                                                                                
G28                                                                                                                                
G14                                                                                                                                
G12                                                                                                                                
G 7                                                                                                                                
G26                                                                                                                                
> 2020  9 16 11 54 35.0000000  0 19       0.000000000000
G19                                                                                                                                
G 3  20404160.240   107224586.383         741.902          55.250    20404161.140    83551638.043         577.734          51.750  
G 4  22726403.100   119428059.879        3406.562          49.250    22726404.060    93060830.082        2655.328          47.500  
G11  21981239.140   115512193.223       -3375.480          51.500                                                                  
G22  20682017.620   108684734.867        -667.391          54.750                                                                  
G 1  20412535.160   107268589.566       -1302.934          55.500    20412535.980    83585940.527       -1016.137          52.000  
G17  22593342.800   118728810.738        1809.844          51.250    22593341.120    92515966.566        1410.109          47.500  
R 1  20705309.440   110681776.797       -3028.406          48.000    20705316.420    86085828.793       -2357.496          44.750  
R18  22397860.140   119561340.516        3945.457          49.750    22397867.840    92992156.965        3067.934          50.500  
R24  20438376.520   109293233.578       -3021.699          53.250    20438383.480    85005843.684       -2349.254          52.750  
R17  19226451.980   102884653.906        1042.348          54.000    19226457.180    80021396.238         810.652          52.750  
R 3  23299320.780   124723127.477        3880.305          42.750    23299328.480    97006886.184        3015.840          45.000  
G 9                                                                                                                                
G27                                                                                                                                
G28                                                                                                                                
G14                                                                                                                                
G12                                                                                                                                
G 7                                                                                                                                
G26                                                                                                                                
> 2020  9 16 11 54 36.0000000  0 19       0.000000000000
G19                                                                                                                                
G 3  20404018.540   107223841.895         741.625          55.250    20404019.520    83551057.922         577.676          51.750  
G 4  22725754.260   119424650.105        3406.883          49.250    22725755.280    93058173.109        2653.672          47.500  
G11  21981881.320   115515567.527       -3376.859          51.750                                                                  
G22  20682144.240   108685399.953        -667.508          55.000                                                                  
G 1  20412782.700   107269890.699       -1303.969          55.500    20412783.480    83586954.398       -1015.539          52.000  
G17  22592997.900   118726998.461        1808.535          51.500    22592996.420    92514554.395        1410.770          47.500  
R 1  20705875.500   110684804.688       -3030.918          48.250    20705882.540    86088183.828       -2356.195          44.750  
R18  22397120.520   119557393.340        3944.207          49.750    22397128.460    92989086.938        3067.691          50.500  
R24  20438940.920   109296252.570       -3021.625          53.250    20438947.860    85008191.785       -2350.441          52.750  
R17  19226257.000   102883609.496        1041.160          54.000    19226262.060    80020583.918         810.246          52.750  
R 3  23298594.880   124719246.598        3877.383          42.250    23298604.080    97003867.715        3017.266          44.750  
G 9                                                                                                                                
G27                                                                                                                                
G28                                                                                                                                
G14                                                                                                                                
G12                                                                                                                                
G 7                                                                                                                                
G26                                                                                                                                
> 2020  9 16 11 54 37.0000000  0 19       0.000000000000
G19                                                                                                                                
G 3  20403877.060   107223097.902         741.027          55.500    20403878.000    83550478.184         578.414          51.750  
G 4  22725105.320   119421240.691        3407.035          49.250    22725106.460    93055516.426        2653.430          47.500  
G11  21982523.720   115518942.246       -3378.102          51.750                                                                  
G22  20682270.780   108686065.473        -668.824          54.750                                                                  
G 1  20413030.300   107271192.395       -1303.859          55.500    20413031.160    83587968.707       -1016.953          52.000  
G17  22592652.980   118725186.770        1808.043          51.000    22592651.620    92513142.680        1410.141          47.500  
R 1  20706442.200   110687833.008       -3030.215          48.250    20706449.260    86090539.176       -2357.367          44.750  
R18  22396380.800   119553446.488        3945.098          49.500    22396388.920    92986017.168        3067.945          50.500  
R24  20439505.520   109299272.203       -3022.836          53.250    20439512.600    85010540.395       -2351.387          52.750  
R17  19226062.160   102882565.996        1040.152          54.250    19226067.100    80019772.305         809.613          52.750  
R 3  23297868.480   124715366.020        3877.816          42.000    23297879.020    97000849.492        3015.531          44.500  
G 9                                                                                                                                
G27                                                                                                                                
G28                                                                                                                                
G14                                                                                                                                
G12                                                                                                                                
G 7                                                                                                                                
G26                                                                                                                                
> 2020  9 16 11 54 38.0000000  0 19       0.000000000000
G19                                                                                                                                
G 3  20403735.680   107222354.750         741.426          55.500    20403736.700    83549899.102         577.688          51.500  
G 4  22724456.600   119417831.969        3406.352          49.500    22724457.680    93052860.277        2653.141          47.250  
G11  21983166.300   115522317.738       -3377.484          52.000                                                                  
G22  20682397.580   108686731.758        -668.074          55.000                                                                  
G 1  20413278.080   107272494.980       -1305.598          55.500    20413279.140    83588983.703       -1016.527          51.750  
G17  22592308.160   118723376.020        1807.879          51.250    22592307.020    92511731.711        1408.137          47.250  
R 1  20707009.080   110690862.113       -3031.773          48.250    20707015.820    86092895.148       -2358.695          44.750  
R18  22395641.640   119549500.301        3944.930          49.500    22395649.900    92982947.914        3067.523          50.500  
R24  20440070.200   109302292.883       -3022.500          53.000    20440077.920    85012889.809       -2352.055          52.750  
R17  19225867.160   102881523.703        1039.914          54.000    19225872.340    80018961.629         809.133          52.750  
R 3  23297143.000   124711486.055        3878.059          41.500    23297154.000    96997831.758        3016.484          44.250  
G 9                                                                                                                                
G27                                                                                                                                
G28                                                                                                                                
G14                                                                                                                                
G12                                                                                                                                
G 7                                                                                                                                
G26                                                                                                                                
> 2020  9 16 11 54 39.0000000  0 19       0.000000000000
G19                                                                                                                                
G 3  20403594.800   107221614.293         740.734          55.500    20403595.840    83549322.121         576.668          51.500  
G 4  22723808.540   119414425.816        3405.824          49.500    22723809.500    93050206.141        2654.020          47.250  
G11  21983809.320   115525695.879       -3379.219          52.000                                                                  
G22  20682524.780   108687400.688        -668.848          55.000                                                                  
G 1  20413526.520   107273800.336       -1305.609          55.500    20413527.560    83590000.863       -1017.145          51.500  
G17  22591963.860   118721568.074        1808.473          51.000    22591962.800    92510322.906        1408.176          47.000  
R 1  20707576.020   110693893.898       -3030.945          48.000    20707582.860    86095253.203       -2357.312          44.750  
R18  22394902.920   119545556.707        3944.586          49.250    22394910.880    92979880.680        3068.047          50.250  
R24  20440635.520   109305316.512       -3023.859          53.000    20440643.200    85015241.512       -2352.570          52.750  
R17  19225672.920   102880484.492        1038.516          54.250    19225678.220    80018153.359         808.156          52.750  
R 3  23296416.900   124707608.617        3876.621          40.750    23296430.260    96994815.973        3015.586          44.250  
G 9                                                                                                                                
G27                                                                                                                                
G28                                                                                                                                
G14                                                                                                                                
G12                                                                                                                                
G 7                                                                                                                                
G26                                                                                                                                
> 2020  9 16 11 54 40.0000000  0 19       0.000000000000
G19                                                                                                                                
G 3  20403453.600   107220871.883         739.621          55.750    20403454.560    83548743.625         576.707          51.500  
G 4  22723160.200   119411017.559        3405.738          49.750    22723161.080    93047550.363        2653.223          47.250  
G11  21984451.740   115529071.992       -3377.363          52.250                                                                  
G22  20682651.620   108688067.590        -669.074          55.000                                                                  
G 1  20413774.440   107275103.785       -1306.672          55.500    20413775.520    83591016.547       -1017.246          51.500  
G17  22591619.500   118719758.266        1808.340          51.000    22591618.500    92508912.672        1408.121          47.000  
R 1  20708142.840   110696923.590       -3031.359          48.000    20708149.500    86097609.629       -2357.734          44.750  
R18  22394163.540   119541610.938        3942.543          49.250    22394171.480    92976811.746        3067.254          50.250  
R24  20441201.100   109308338.281       -3024.020          53.250    20441208.560    85017591.785       -2352.734          52.500  
R17  19225478.560   102879443.613        1038.590          54.000    19225483.160    80017343.781         807.367          52.500  
R 3  23295691.380   124703728.961        3876.820          40.250    23295705.600    96991798.484        3015.684          44.250  
G 9                                                                                                                                
G27                                                                                                                                
G28                                                                                                                                
G14                                                                                                                                
G12                                                                                                                                
G 7                                                                                                                                
G26                                                                                                                                
> 2020  9 16 11 54 41.0000000  0 19       0.000000000000
G19                                                                                                                                
G 3  20403312.460   107220129.523         738.977          56.000    20403313.320    83548165.152         576.797          51.500  
G 4  22722511.820   119407609.215        3405.270          49.750    22722512.480    93044894.500        2653.121          47.250  
G11  21985094.140   115532448.098       -3377.285          52.000                                                                  
G22  20682778.440   108688734.465        -669.941          55.000                                                                  
G 1  20414022.400   107276407.348       -1306.285          55.500    20414023.460    83592032.305       -1017.633          51.500  
G17  22591274.920   118717948.605        1807.258          51.000    22591274.100    92507502.555        1409.105          47.250  
R 1  20708709.580   110699953.285       -3032.617          48.000    20708716.700    86099966.055       -2358.781          44.750  
R18  22393424.400   119537665.012        3944.066          49.000    22393432.720    92973742.691        3066.734          50.250  
R24  20441767.080   109311360.234       -3024.777          53.500    20441773.660    85019942.191       -2352.031          52.750  
R17  19225284.080   102878403.152        1037.578          54.000    19225288.500    80016534.539         806.879          52.500  
R 3  23294965.760   124699849.191        3878.988          39.500    23294980.160    96988780.891        3015.539          43.750  
G 9                                                                                                                                
G27                                                                                                                                
G28                                                                                                                                
G14                                                                                                                                
G12                                                                                                                                
G 7                                                                                                                                
G26                                                                                                                                
> 2020  9 16 11 54 42.0000000  0 19       0.000000000000
G19                                                                                                                                
G 3  20403171.420   107219388.039         738.855          55.250    20403172.260    83547587.379         575.570          51.500  
G 4  22721863.580   119404201.613        3405.535          49.500    22721863.960    93042239.238        2654.297          47.000  
G11  21985736.880   115535825.016       -3379.938          51.500                                                                  
G22  20682905.460   108689402.156        -670.043          54.250                                                                  
G 1  20414270.580   107277711.836       -1306.215          54.750    20414271.740    83593048.789       -1018.680          51.500  
G17  22590930.580   118716139.953        1806.059          50.250    22590929.700    92506093.211        1407.762          47.000  
R 1  20709276.440   110702983.805       -3032.230          47.750    20709284.040    86102323.125       -2358.305          44.750  
R18  22392685.060   119533719.770        3942.328          49.250    22392693.480    92970674.176        3066.914          50.250  
R24  20442332.540   109314383.242       -3025.195          53.750    20442339.140    85022293.422       -2353.117          52.750  
R17  19225089.980   102877363.949        1036.496          54.000    19225094.220    80015726.270         806.324          52.500  
R 3  23294240.600   124695970.102        3878.039          39.250    23294254.580    96985763.828        3014.398          43.750  
G 9                                                                                                                                
G27                                                                                                                                
G28                                                                                                                                
G14                                                                                                                                
G12                                                                                                                                
G 7                                                                                                                                
G26                                                                                                                                
> 2020  9 16 11 54 43.0000000  0 19       0.000000000000
G19                                                                                                                                
G 3  20403030.400   107218647.027         738.656          55.000    20403031.260    83547009.969         575.258          51.500  
G 4  22721215.400   119400794.359        3404.793          49.250    22721215.680    93039584.223        2653.488          47.000  
G11  21986379.680   115539202.328       -3378.539          51.500                                                                  
G22  20683032.680   108690070.258        -670.367          54.000                                                                  
G 1  20414518.740   107279016.875       -1307.023          54.500    20414520.060    83594065.699       -1018.633          51.500  
G17  22590586.520   118714331.863        1806.602          50.000    22590585.720    92504684.312        1409.195          47.000  
R 1  20709842.920   110706014.723       -3034.414          48.250    20709850.920    86104680.500       -2359.871          44.750  
R18  22391945.840   119529774.820        3943.004          49.500    22391954.180    92967605.883        3066.031          50.250  
R24  20442897.800   109317406.918       -3025.656          53.750    20442904.400    85024645.172       -2353.141          52.750  
R17  19224895.840   102876325.586        1036.184          54.250    19224900.280    80014918.652         805.746          52.500  
R 3  23293516.480   124692091.312        3877.445          40.250    23293530.180    96982747.027        3015.910          43.250  
G 9                                                                                                                                
G27                                                                                                                                
G28                                                                                                                                
G14                                                                                                                                
G12                                                                                                                                
G 7                                                                                                                                
G26                                                                                                                                
> 2020  9 16 11 54 44.0000000  0 19       0.000000000000
G19                                                                                                                                
G 3  20402889.660   107217906.770         737.828          55.250    20402890.360    83546433.141         575.789          51.500  
G 4  22720567.140   119397387.703        3404.688          49.250    22720567.560    93036929.695        2652.176          47.250  
G11  21987022.480   115542580.320       -3381.832          51.500                                                                  
G22  20683159.900   108690739.027        -671.621          54.250                                                                  
G 1  20414767.160   107280322.695       -1307.734          54.500    20414768.540    83595083.230       -1019.309          51.500  
G17  22590242.460   118712524.617        1804.434          50.000    22590241.860    92503276.062        1407.223          47.000  
R 1  20710410.080   110709046.336       -3036.027          48.500    20710417.800    86107038.426       -2359.203          44.750  
R18  22391207.300   119525830.430        3941.895          49.750    22391214.940    92964538.016        3066.355          50.250  
R24  20443463.080   109320431.516       -3027.336          54.000    20443470.300    85026997.621       -2355.367          52.750  
R17  19224702.380   102875288.316        1035.176          54.750    19224706.400    80014111.887         804.574          52.250  
R 3  23292792.380   124688213.078        3878.344          40.000    23292805.280    96979730.605        3014.902          43.250  
G 9                                                                                                                                
G27                                                                                                                                
G28                                                                                                                                
G14                                                                                                                                
G12                                                                                                                                
G 7                                                                                                                                
G26                                                                                                                                
